city_id,city_name,country,lat,lng,
3041563,Andorra la Vella,AD,42.50779,1.52109,
292968,Abu Dhabi,AE,24.466669,54.366669,
292953,Adh Dhayd,AE,25.28812,55.881569,
292932,Ajman,AE,25.41111,55.43504,
292913,Al Ayn,AE,24.191669,55.760559,
292878,Al Fujayrah,AE,25.116409,56.341412,
292688,Ar Ruways,AE,24.110279,52.73056,
292239,Diba,AE,25.619551,56.272911,
292223,Dubai,AE,25.258169,55.304722,
291696,Khawr Fakkan,AE,25.33132,56.341991,
291074,Ras al Khaymah,AE,25.78953,55.943199,
292672,Sharjah,AE,25.357309,55.403301,
290594,Umm al Qaywayn,AE,25.56473,55.555168,
1127768,Aibak,AF,36.264679,68.015511,
1148658,Andkhoy,AF,36.95293,65.123756,
1148106,Art Khwajah,AF,37.085709,69.479584,
1148311,Asadabad,AF,34.873112,71.146973,
1148205,Asmar,AF,35.033329,71.358093,
1147540,Baghlan,AF,36.13068,68.70829,
1147290,Balkh,AF,36.756351,66.897202,
1147066,Baraki Barak,AF,33.967499,68.948608,
1145352,Charikar,AF,35.013611,69.171387,
1142264,Farah,AF,32.374512,62.116379,
1142170,Fayzabad,AF,37.116638,70.580017,
1141857,Gardez,AF,33.597439,69.225922,
1141540,Gereshk,AF,31.82089,64.570053,
1141269,Ghazni,AF,33.553558,68.426888,
1141089,Ghormach,AF,35.730621,63.782639,
1140026,Herat,AF,34.348171,62.199669,
1139807,Jabal os Saraj,AF,35.118328,69.237778,
1139715,Jalalabad,AF,34.426472,70.45153,
1138958,Kabul,AF,34.52813,69.172333,
1142404,Kafir Qala,AF,34.666672,61.066669,
1138336,Kandahar,AF,31.613319,65.710129,
1137807,Karukh,AF,34.481079,62.5863,
1137168,Khanabad,AF,36.682499,69.115562,
1136863,Khash,AF,31.52919,62.79055,
1136469,Khost,AF,33.339512,69.92041,
1136575,Khulm,AF,36.697361,67.698257,
1135689,Kunduz,AF,36.728958,68.857002,
1135158,Kushk,AF,33.29565,61.952209,
1134720,Lashkar Gah,AF,31.593821,64.371613,
1469706,Markaz-e Woluswali-ye Achin,AF,34.125832,70.707779,
1133453,Maymana,AF,35.921391,64.783607,
1133616,Mazar-e Sharif,AF,36.709042,67.11087,
1133574,Mehtar Lam,AF,34.671391,70.209442,
1132495,Nahrin,AF,36.064899,69.13343,
1131316,Paghman,AF,34.587502,68.953331,
1130490,Pul-e Khumri,AF,35.94458,68.715118,
1129648,Qarawul,AF,37.220188,68.780411,
1129516,Qarqin,AF,37.41853,66.043579,
1128265,Rustaq,AF,37.126041,69.830452,
1127628,Sang-e Charak,AF,35.84972,66.436943,
1127110,Sar-e Pul,AF,36.215439,65.932487,
1125896,Shahrak,AF,34.10738,64.305199,
1125444,Shibirghan,AF,36.667568,65.752899,
1125155,Shindand,AF,33.30294,62.1474,
1123004,Taloqan,AF,36.73605,69.534508,
3576022,Saint Johns,AG,17.116671,-61.849998,
3573374,The Valley,AI,18.217039,-63.057831,
3186084,Berat,AL,40.70583,19.952221,
783493,Burrel,AL,41.610279,20.00889,
3185728,Durres,AL,41.323059,19.441389,
783263,Elbasan,AL,41.112499,20.08222,
3185670,Fier-Cifci,AL,40.716671,19.566669,
783148,Gjirokaster,AL,40.075829,20.138889,
3185211,Kavaje,AL,41.185558,19.55694,
782756,Korce,AL,40.61861,20.78083,
3185082,Kruje,AL,41.509171,19.79278,
3185060,Kucove,AL,40.800282,19.91667,
782661,Kukes,AL,42.076939,20.42194,
3185012,Lac,AL,41.635559,19.71306,
3184935,Lezhe,AL,41.783611,19.64361,
3184862,Lushnje,AL,40.94194,19.705,
3184517,Patos Fshat,AL,40.64278,19.650829,
363243,Sarande,AL,39.875561,20.00528,
3184081,Shkoder,AL,42.068279,19.512581,
3183875,Tirana,AL,41.327499,19.81889,
3183719,Vlore,AL,40.466671,19.489719,
617026,Abovyan,AM,40.26741,44.62656,
174991,Ararat,AM,39.831661,44.704891,
616631,Armavir,AM,40.154461,44.038151,
174979,Artashat,AM,39.961441,44.544472,
616877,Ashtarak,AM,40.299099,44.362041,
616062,Ejmiatsin,AM,40.165569,44.294621,
616599,Gavarr,AM,40.353981,45.123859,
174895,Goris,AM,39.512878,46.338161,
616635,Gyumri,AM,40.794201,43.84528,
174972,Hatsavan,AM,39.46405,45.97047,
616629,Hrazdan,AM,40.497478,44.766201,
174875,Kapan,AM,39.207539,46.405762,
616435,Masis,AM,40.067619,44.435909,
616250,Sevan,AM,40.548401,44.948681,
616199,Spitak,AM,40.832199,44.2673,
616530,Vanadzor,AM,40.804562,44.4939,
616052,Yerevan,AM,40.18111,44.513611,
3351663,Benguela,AO,-12.57626,13.40547,
3351500,Caala,AO,-12.8525,15.56056,
2243271,Cabinda,AO,-5.55,12.2,
3351024,Caluquembe,AO,-13.78333,14.68333,
3351014,Camacupa,AO,-12.01667,17.48333,
3350372,Catabola,AO,-12.15,17.283331,
3350246,Catumbela,AO,-12.43139,13.54722,
2242001,Caxito,AO,-8.57848,13.66425,
3348313,Huambo,AO,-12.77611,15.73917,
3348078,Kuito,AO,-12.38333,16.933331,
3347939,Lobito,AO,-12.34806,13.54556,
3347853,Longonjo,AO,-12.90667,15.25333,
2240449,Luanda,AO,-8.83682,13.23432,
876177,Luau,AO,-10.70727,22.224661,
3347762,Lubango,AO,-14.91717,13.4925,
145724,Lucapa,AO,-8.41915,20.744659,
3347719,Luena,AO,-11.78333,19.91667,
2239862,Malanje,AO,-9.54015,16.34096,
2239520,Mbanza Congo,AO,-6.26703,14.2401,
3347353,Menongue,AO,-14.6585,17.69099,
3347019,Namibe,AO,-15.19611,12.15222,
2239001,Nzeto,AO,-7.23116,12.8666,
145531,Saurimo,AO,-9.66078,20.39155,
2236967,Soio,AO,-6.1349,12.36894,
3346015,Sumbe,AO,-11.20605,13.84371,
2236568,Uige,AO,-7.60874,15.06131,
3866496,Aguilares,AR,-27.4338,-65.614273,
3866425,Albardon,AR,-31.43722,-68.525558,
3866367,Alderetes,AR,-26.816669,-65.133331,
3866242,Allen,AR,-38.97736,-67.827141,
3866163,Alta Gracia,AR,-31.65292,-64.428261,
3865840,Anatuya,AR,-28.46064,-62.834721,
3436287,Aristobulo del Valle,AR,-27.096251,-54.896259,
3865424,Arroyito,AR,-31.420219,-63.050018,
3865385,Arroyo Seco,AR,-33.154888,-60.508629,
3436230,Avellaneda,AR,-29.117611,-59.65834,
3436199,Azul,AR,-36.776981,-59.85854,
3865086,Bahia Blanca,AR,-38.719601,-62.27243,
3436124,Barranqueras,AR,-27.48299,-58.935791,
3864331,Bell Ville,AR,-32.625912,-62.688728,
3864375,Bella Vista,AR,-27.03084,-65.303146,
3435910,Buenos Aires,AR,-34.613152,-58.377232,
3863379,Caleta Olivia,AR,-46.439289,-67.528137,
3435810,Campana,AR,-34.168739,-58.959141,
3862981,Canada de Gomez,AR,-32.81636,-61.394932,
3862738,Capitan Bermudez,AR,-32.82262,-60.718521,
3862655,Carcarana,AR,-32.856789,-61.153309,
3862351,Casilda,AR,-33.04417,-61.16806,
3862320,Castelli,AR,-25.946791,-60.619469,
3862254,Catriel,AR,-37.87907,-67.795601,
3862240,Caucete,AR,-31.651791,-68.281052,
3862144,Centenario,AR,-38.804329,-68.139977,
3861953,Chacabuco,AR,-34.64167,-60.473888,
3435486,Chajari,AR,-30.750481,-57.979622,
3861678,Charata,AR,-27.21438,-61.18795,
3861445,Chilecito,AR,-29.161949,-67.497398,
3861416,Chimbas,AR,-31.48333,-68.533333,
3861344,Chivilcoy,AR,-34.89566,-60.01667,
3861061,Cinco Saltos,AR,-38.822239,-68.062927,
3861056,Cipolletti,AR,-38.933922,-67.990318,
3435356,Colegiales,AR,-34.57365,-58.449242,
3860443,Comodoro Rivadavia,AR,-45.866669,-67.5,
3435264,Concepcion del Uruguay,AR,-32.482491,-58.237221,
3435261,Concordia,AR,-31.39296,-58.020889,
3860259,Cordoba,AR,-31.4135,-64.181053,
3860217,Coronda,AR,-31.97263,-60.919819,
3860164,Coronel Suarez,AR,-37.45467,-61.93343,
3435217,Corrientes,AR,-27.4806,-58.834099,
3859965,Cosquin,AR,-31.245081,-64.46563,
3859904,Crespo,AR,-32.028728,-60.30658,
3859828,Cruz del Eje,AR,-30.72644,-64.803871,
3435103,Curuzu Cuatia,AR,-29.79171,-58.0546,
3859552,Cutral-Co,AR,-38.94688,-69.208893,
3859512,Dean Funes,AR,-30.420361,-64.349838,
3859384,Diamante,AR,-32.06641,-60.638359,
3435038,Dolores,AR,-36.313221,-57.67918,
3858765,El Bolson,AR,-41.966671,-71.51667,
3434291,El Soberbio,AR,-27.29846,-54.198769,
3856235,Embalse,AR,-32.18,-64.418091,
3856231,Embarcacion,AR,-23.208981,-64.096046,
3856022,Esperanza,AR,-31.448799,-60.931728,
3855974,Esquel,AR,-42.900002,-71.316673,
3434095,Esquina,AR,-30.014441,-59.527191,
3855666,Famailla,AR,-27.054131,-65.40329,
3433956,Federal,AR,-30.954651,-58.78326,
3855554,Firmat,AR,-33.45937,-61.4832,
3433901,Fontana,AR,-27.418131,-59.023918,
3433899,Formosa,AR,-26.17753,-58.178139,
3855244,Galvez,AR,-32.02927,-61.221031,
3433836,Garupa,AR,-27.48171,-55.829208,
3855116,General Enrique Mosconi,AR,-22.595881,-63.81255,
3433803,General Jose de San Martin,AR,-26.53743,-59.341579,
3855075,General Pico,AR,-35.65662,-63.756821,
3855074,General Pinedo,AR,-27.316669,-61.283329,
3855065,General Roca,AR,-39.033329,-67.583328,
3854985,Gobernador Galvez,AR,-33.030159,-60.64045,
3433753,Gobernador Ingeniero Valentin Virasoro,AR,-28.049999,-56.033329,
3433715,Goya,AR,-29.14003,-59.262562,
3854895,Granadero Baigorria,AR,-32.856831,-60.717541,
3433663,Gualeguay,AR,-33.14156,-59.309662,
3433658,Gualeguaychu,AR,-33.00938,-58.51722,
3433349,Jardin America,AR,-27.043461,-55.226978,
3853510,Jesus Maria,AR,-30.981529,-64.094238,
3853491,Joaquin V. Gonzalez,AR,-25.08333,-64.183327,
3853354,Junin,AR,-34.58382,-60.943321,
3852374,La Calera,AR,-31.343769,-64.335289,
3851331,La Falda,AR,-31.088409,-64.489868,
3432079,La Paz,AR,-30.74485,-59.64566,
3432043,La Plata,AR,-34.921452,-57.954529,
3848950,La Rioja,AR,-29.411051,-66.85067,
3852468,Laboulaye,AR,-34.126621,-63.39119,
3848687,Las Brenas,AR,-27.089661,-61.081612,
3846915,Libertador General San Martin,AR,-23.80644,-64.787567,
3846864,Lincoln,AR,-34.866489,-61.530201,
3430988,Lujan,AR,-34.570278,-59.105,
3845330,Machagai,AR,-26.92614,-60.049561,
3430863,Mar del Plata,AR,-38.002281,-57.557541,
3844899,Marcos Juarez,AR,-32.6978,-62.10672,
3844421,Mendoza,AR,-32.890839,-68.827171,
3430708,Mercedes,AR,-34.651459,-59.430679,
3430709,Mercedes,AR,-29.18186,-58.078949,
3430598,Monte Caseros,AR,-30.25359,-57.636261,
3430601,Montecarlo,AR,-26.5662,-54.757,
3843803,Monteros,AR,-27.167419,-65.498322,
3430545,Moron,AR,-34.653439,-58.619751,
3843619,Morteros,AR,-30.711639,-61.998619,
3430443,Necochea,AR,-38.54726,-58.736752,
3843123,Neuquen,AR,-38.951611,-68.059097,
3842881,Nueve de Julio,AR,-35.44437,-60.883129,
3430340,Obera,AR,-27.487061,-55.119942,
3842670,Olavarria,AR,-36.892719,-60.32254,
3842190,Palpala,AR,-24.256479,-65.211632,
3841956,Parana,AR,-31.73197,-60.5238,
3430104,Paso de los Libres,AR,-29.71311,-57.089909,
3841500,Perez,AR,-32.998348,-60.76791,
3841490,Pergamino,AR,-33.88995,-60.57357,
3429949,Pirane,AR,-25.732389,-59.108791,
3840885,Plottier,AR,-38.966671,-68.23333,
3840860,Pocito,AR,-31.683331,-68.583328,
3429902,Pontevedra,AR,-34.749741,-58.686958,
3429886,Posadas,AR,-27.367081,-55.89608,
3840300,Presidencia Roque Saenz Pena,AR,-26.785219,-60.438759,
3429790,Puerto Eldorado,AR,-26.408421,-54.69463,
3429786,Puerto Esperanza,AR,-26.015169,-54.673061,
3429777,Puerto Iguazu,AR,-25.599119,-54.573551,
3840092,Puerto Madryn,AR,-42.769199,-65.038513,
3429732,Puerto Rico,AR,-26.79598,-55.024021,
3839982,Punta Alta,AR,-38.875881,-62.073589,
3429652,Quilmes,AR,-34.724178,-58.252651,
3839490,Quitilipi,AR,-26.869129,-60.216831,
3839479,Rafaela,AR,-31.25033,-61.486698,
3839307,Rawson,AR,-43.300159,-65.10228,
3429594,Reconquista,AR,-29.15,-59.650002,
3429577,Resistencia,AR,-27.46056,-58.983891,
3429576,Retiro,AR,-34.583328,-58.383331,
3838902,Rio Ceballos,AR,-31.16486,-64.322411,
3838874,Rio Cuarto,AR,-33.130669,-64.349922,
3838859,Rio Gallegos,AR,-51.622608,-69.218132,
3838797,Rio Segundo,AR,-31.652599,-63.909901,
3838793,Rio Tercero,AR,-32.173012,-64.114059,
3838583,Rosario,AR,-32.946819,-60.63932,
3838506,Rufino,AR,-34.268269,-62.71262,
3429403,Saladas,AR,-28.253839,-58.625912,
3838233,Salta,AR,-24.7859,-65.411659,
3837980,San Antonio Oeste,AR,-40.73193,-64.947693,
3837702,San Fernando del Valle de Catamarca,AR,-28.46957,-65.78524,
3837675,San Francisco,AR,-31.427971,-62.082661,
3428975,San Javier,AR,-30.57781,-59.931702,
3837441,San Jorge,AR,-31.896179,-61.85984,
3837240,San Jose de Jachal,AR,-30.24057,-68.746933,
3837213,San Juan,AR,-31.5375,-68.536392,
3837124,San Justo,AR,-30.789129,-60.591888,
3428759,San Lorenzo,AR,-28.13306,-58.76733,
3837056,San Luis,AR,-33.29501,-66.335632,
3428708,San Luis del Palmar,AR,-27.5079,-58.554539,
3836992,San Martin,AR,-33.081032,-68.46814,
3836951,San Martin de los Andes,AR,-40.160381,-71.348648,
3836873,San Miguel de Tucuman,AR,-26.824141,-65.222603,
3836846,San Nicolas de los Arroyos,AR,-33.335781,-60.225231,
3428577,San Pedro,AR,-26.62207,-54.108421,
3836772,San Pedro,AR,-24.23127,-64.866142,
3836669,San Rafael,AR,-34.617722,-68.33007,
3836620,San Ramon de la Nueva Oran,AR,-23.132231,-64.325981,
3836564,San Salvador de Jujuy,AR,-24.194559,-65.297119,
3428068,San Vicente,AR,-26.616671,-54.133331,
3428359,Santa Elena,AR,-30.94768,-59.786961,
3836277,Santa Fe de la Vera Cruz,AR,-31.633329,-60.700001,
3836194,Santa Lucia,AR,-31.539869,-68.495033,
3835994,Santa Rosa,AR,-36.616669,-64.283333,
3835869,Santiago del Estero,AR,-27.795111,-64.26149,
3428071,Santo Tome,AR,-28.549391,-56.040771,
3835793,Santo Tome,AR,-31.662741,-60.765301,
3834971,Sunchales,AR,-30.94404,-61.561481,
3834813,Tafi Viejo,AR,-26.73201,-65.259209,
3427833,Tandil,AR,-37.321671,-59.13316,
3834601,Tartagal,AR,-22.516359,-63.801311,
3834502,Termas de Rio Hondo,AR,-27.49983,-64.86042,
3427761,Tigre,AR,-34.426029,-58.57962,
3833883,Trelew,AR,-43.248951,-65.305054,
3833859,Tres Arroyos,AR,-38.37394,-60.279781,
3833794,Tres Isletas,AR,-26.34066,-60.432072,
3833412,Unquillo,AR,-31.23073,-64.316147,
3833367,Ushuaia,AR,-54.799999,-68.300003,
3833112,Veinticinco de Mayo,AR,-35.432301,-60.17271,
3833062,Venado Tuerto,AR,-33.74556,-61.968842,
3833027,Vera,AR,-29.459299,-60.212608,
3832934,Victoria,AR,-32.618408,-60.154781,
3832899,Viedma,AR,-40.81345,-62.996681,
3832815,Villa Allende,AR,-31.29458,-64.29538,
3832811,Villa Angela,AR,-27.57383,-60.71526,
3832791,Villa Carlos Paz,AR,-31.424141,-64.49778,
3832778,Villa Constitucion,AR,-33.227779,-60.3297,
3832756,Villa Dolores,AR,-31.94585,-65.189583,
3427431,Villa Gesell,AR,-37.263939,-56.973042,
3832694,Villa Maria,AR,-32.407509,-63.240162,
3832662,Villa Nueva,AR,-32.43293,-63.247631,
3427388,Villa Ocampo,AR,-28.48752,-59.355148,
3832653,Villa Paula de Sarmiento,AR,-31.493299,-68.538383,
3832647,Villa Regina,AR,-39.099998,-67.066673,
3427428,Villaguay,AR,-31.865299,-59.02689,
3832260,Yerba Buena,AR,-26.816669,-65.316673,
3832132,Zapala,AR,-38.899158,-70.05442,
3427213,Zarate,AR,-34.098141,-59.02858,
5881576,Pago Pago,AS,-14.27806,-170.702499,
2782555,Amstetten,AT,48.122898,14.87206,
3323063,Ansfelden,AT,47.965,13.04944,
2782067,Baden,AT,48.005428,16.232639,
2781520,Braunau am Inn,AT,48.256279,13.04343,
2781503,Bregenz,AT,47.503109,9.7471,
2780741,Dornbirn,AT,47.416672,9.73306,
2779674,Feldkirch,AT,47.233059,9.6,
2778067,Graz,AT,47.066669,15.45,
2776951,Hallein,AT,47.683331,13.1,
2775220,Innsbruck,AT,47.262661,11.39454,
2774773,Kapfenberg,AT,47.44458,15.29331,
2774326,Klagenfurt am Woerthersee,AT,46.624722,14.30528,
2773913,Klosterneuburg,AT,48.30521,16.32522,
2773549,Krems an der Donau,AT,48.40921,15.61415,
2773300,Kufstein,AT,47.583328,12.16667,
2772649,Leoben,AT,47.383331,15.1,
2772635,Leonding,AT,48.279652,14.2533,
2772400,Linz,AT,48.306389,14.28611,
2772173,Lustenau,AT,47.426418,9.65851,
2771335,Modling,AT,48.086048,16.289209,
2766922,Saalfelden am Steinernen Meer,AT,47.426811,12.848,
2766824,Salzburg,AT,47.799412,13.04399,
2766429,Sankt Polten,AT,48.200001,15.63333,
2765388,Schwechat,AT,48.133331,16.466669,
2764786,Spittal an der Drau,AT,46.799999,13.5,
2764359,Steyr,AT,48.04274,14.42127,
2763795,Ternitz,AT,47.715649,16.035749,
2763460,Traiskirchen,AT,48.014851,16.29324,
2763423,Traun,AT,48.226559,14.23459,
2761369,Vienna,AT,48.208488,16.37208,
2762372,Villach,AT,46.610279,13.85583,
2761669,Weinzierl bei Krems,AT,48.400002,15.6,
2761524,Wels,AT,48.166672,14.03333,
2761353,Wiener Neustadt,AT,47.799999,16.25,
2760910,Wolfsberg,AT,46.840561,14.84417,
2078025,Adelaide,AU,-34.933331,138.600006,
2077963,Albany,AU,-35.016941,117.89167,
2178174,Albury,AU,-36.083328,146.916672,
2077895,Alice Springs,AU,-23.700001,133.883331,
2177671,Armidale,AU,-30.51667,151.649994,
2177091,Ballarat,AU,-37.566219,143.849564,
2176934,Banora Point,AU,-28.21298,153.536346,
2176632,Bathurst,AU,-33.416649,149.580597,
2176187,Bendigo,AU,-36.76667,144.283325,
2175411,Blacktown,AU,-33.76667,150.916672,
2068823,Boulder,AU,-30.75,121.466667,
2174003,Brisbane,AU,-27.467939,153.028091,
2173911,Broken Hill,AU,-31.950001,141.433334,
2173741,Brunswick,AU,-37.76667,144.966675,
2173605,Buderim,AU,-26.683331,153.050003,
2075432,Bunbury,AU,-33.333328,115.633331,
2173323,Bundaberg,AU,-24.85,152.350006,
2173125,Burnie,AU,-41.066669,145.916672,
2172832,Caboolture,AU,-27.08333,152.949997,
2172797,Cairns,AU,-16.91667,145.766663,
2172710,Caloundra,AU,-26.799999,153.133331,
2172686,Camberwell,AU,-37.842049,145.069397,
2172517,Canberra,AU,-35.283459,149.128067,
2172311,Caringbah,AU,-34.049999,151.133331,
2172303,Carlingford,AU,-33.782688,151.048874,
2172111,Castle Hill,AU,-33.73333,151,
2171845,Cessnock,AU,-32.833328,151.350006,
2171085,Coffs Harbour,AU,-30.299999,153.133331,
2170089,Craigieburn,AU,-37.599998,144.949997,
2170078,Cranbourne,AU,-38.099998,145.283325,
2169956,Cronulla,AU,-34.049999,151.149994,
2073124,Darwin,AU,-12.46113,130.841843,
2169220,Deception Bay,AU,-27.200001,153.033325,
2208305,Dee Why,AU,-33.75,151.300003,
2168943,Devonport,AU,-41.166672,146.350006,
2168305,Dubbo,AU,-32.25,148.616669,
2167949,Earlwood,AU,-33.950001,151.100006,
2167817,Echuca,AU,-36.133331,144.75,
2167312,Engadine,AU,-34.066669,151.016663,
2167280,Epping,AU,-33.772709,151.081833,
2166309,Forster,AU,-32.166672,152.516663,
2166143,Frankston East,AU,-38.133331,145.133331,
2071059,Gawler,AU,-34.599998,138.733337,
2165798,Geelong,AU,-38.14711,144.360687,
2165796,Geelong West,AU,-38.133331,144.350006,
2070998,Geraldton,AU,-28.76667,114.599998,
2165478,Gladstone,AU,-23.85,151.25,
2165087,Gold Coast,AU,-28,153.433334,
2070571,Gosnells,AU,-32.083328,116,
2164837,Goulburn,AU,-34.75,149.716675,
2164691,Granville,AU,-33.833328,151.016663,
2164515,Greensborough,AU,-37.70462,145.103027,
2164422,Griffith,AU,-34.283329,146.033325,
2163355,Hobart,AU,-42.87936,147.329407,
2163137,Hornsby,AU,-33.702438,151.099304,
2161776,Katoomba,AU,-33.719769,150.307388,
2068079,Kwinana,AU,-32.25,115.76667,
2160517,Launceston,AU,-41.450001,147.166672,
2160063,Lismore,AU,-28.81354,153.277298,
2159851,Liverpool,AU,-33.900002,150.933334,
2159220,Mackay,AU,-21.15,149.199997,
2067119,Mandurah,AU,-32.549999,115.699997,
2158651,Maroubra,AU,-33.950001,151.233337,
2158626,Marrickville,AU,-33.916672,151.166672,
2158562,Maryborough,AU,-25.533331,152.699997,
2158177,Melbourne,AU,-37.813999,144.963318,
2158151,Melton,AU,-37.683331,144.583328,
2157698,Mildura,AU,-34.200001,142.149994,
2157109,Mooloolaba,AU,-26.683331,153.116669,
2156878,Mornington,AU,-38.216671,145.033325,
2065740,Morphett Vale,AU,-35.133331,138.516663,
2156813,Mosman,AU,-33.827782,151.233337,
2156643,Mount Gambier,AU,-37.833328,140.766663,
2065594,Mount Isa,AU,-20.73333,139.5,
2156340,Mulgrave,AU,-37.916672,145.199997,
2065176,Murray Bridge,AU,-35.116669,139.266663,
2155542,Nerang,AU,-27.98333,153.333328,
2155472,Newcastle,AU,-32.927151,151.776474,
2154796,Notting Hill,AU,-37.904999,145.1427,
2154787,Nowra,AU,-34.883331,150.600006,
2154219,Orange,AU,-33.28397,149.100174,
6301965,Palmerston,AU,-12.48602,130.983307,
2063523,Perth,AU,-31.933331,115.833328,
2152659,Port Macquarie,AU,-31.433331,152.916672,
2148398,Port Stephens,AU,-32.696602,152.063477,
2152329,Quakers Hill,AU,-33.73333,150.883331,
2152286,Queanbeyan,AU,-35.349998,149.233337,
2208285,Randwick,AU,-33.916672,151.241669,
2151437,Rockhampton,AU,-23.383329,150.5,
2062276,Roebourne,AU,-20.783331,117.133331,
2150660,Saint Kilda,AU,-37.867599,144.980988,
2149645,Shepparton,AU,-36.383331,145.399994,
2207259,South Brisbane,AU,-27.48333,153.016663,
2148997,South Grafton,AU,-29.700001,152.949997,
2148928,Southport,AU,-27.966669,153.399994,
2147914,Sunbury,AU,-37.583328,144.733337,
2147892,Sunnybank,AU,-27.58333,153.050003,
2147714,Sydney,AU,-33.867851,151.207321,
2147497,Tamworth,AU,-31.1,150.933334,
2147381,Taree,AU,-31.9,152.466675,
2146268,Toowoomba,AU,-27.549999,151.966675,
2146219,Torquay,AU,-25.283331,152.866669,
2146142,Townsville,AU,-19.25,146.800003,
2146108,Traralgon,AU,-38.183331,146.533325,
2145110,Wagga Wagga,AU,-35.116669,147.366669,
2144528,Warrnambool,AU,-38.383331,142.483337,
2058430,Whyalla,AU,-33.033329,137.583328,
2143285,Wodonga,AU,-36.116669,146.883331,
2171507,Wollongong,AU,-34.433331,150.883331,
3577284,Angochi,AW,12.51667,-69.949997,
3577277,Babijn,AW,12.53333,-69.98333,
3577154,Oranjestad,AW,12.52398,-70.027031,
3041732,Mariehamn,AX,60.09726,19.934811,
148619,Agdam,AZ,39.990959,46.927361,
587378,Agdas,AZ,40.650002,47.476109,
587384,Agdzhabedy,AZ,40.05278,47.461391,
587361,Aghsu,AZ,40.570278,48.400871,
587261,Amirdzhan,AZ,40.426392,49.983608,
148445,Astara,AZ,38.455978,48.874981,
824003,Bakixanov,AZ,40.421669,49.964439,
587084,Baku,AZ,40.37767,49.89201,
587057,Barda,AZ,40.374439,47.126671,
587078,Bilajari,AZ,40.444401,49.80566,
586968,Biny Selo,AZ,40.451931,50.08564,
586925,Buzovna,AZ,40.517891,50.113899,
148290,Dzhalilabad,AZ,39.209629,48.491859,
586523,Ganja,AZ,40.682781,46.360561,
586427,Geoktschai,AZ,40.653061,47.740559,
585379,Haci Zeynalabdin,AZ,40.623329,49.558609,
585225,Haciqabul,AZ,40.04084,48.944511,
586429,Hovsan,AZ,40.374439,50.085281,
147982,Imishli,AZ,39.870949,48.059952,
585630,Lokbatan,AZ,40.323719,49.728039,
585568,Mardakyany,AZ,40.492222,50.138889,
585557,Mastaga,AZ,40.53278,50.003891,
585514,Mingelchaur,AZ,40.76395,47.059528,
147429,Nakhchivan,AZ,39.208889,45.41222,
147425,Neftcala,AZ,39.374168,49.247219,
148340,Pushkino,AZ,39.458328,48.544998,
585103,Qaracuxur,AZ,40.396671,49.97361,
585226,Qazax,AZ,41.09333,45.366112,
585221,Quba,AZ,41.362591,48.51519,
585220,Qusar,AZ,41.42728,48.428928,
585187,Sabirabad,AZ,40.00946,48.475151,
585184,Sabuncu,AZ,40.442501,49.948059,
147271,Salyan,AZ,39.59362,48.980549,
585156,Shamakhi,AZ,40.631409,48.641369,
585152,Shamkhor,AZ,40.82972,46.01889,
585170,Sheki,AZ,41.19194,47.170559,
147105,Shushi,AZ,39.75893,46.749191,
148565,Sirvan,AZ,39.937881,48.928551,
584923,Sumqayit,AZ,40.589722,49.66861,
147059,Telmankend,AZ,39.87867,48.399021,
584871,Terter,AZ,40.345001,46.92889,
584791,Ujar,AZ,40.51902,47.654228,
584717,Xacmaz,AZ,41.46349,48.806049,
584716,Xanlar,AZ,40.586941,46.31583,
584649,Yevlakh,AZ,40.61832,47.150139,
584614,Zabrat,AZ,40.476101,49.941582,
584596,Zaqatala,AZ,41.63361,46.64333,
146970,,AZ,39.817699,46.7528,
147622,,AZ,38.75428,48.85062,
3204541,Banja Luka,BA,44.775829,17.18556,
3204222,Bihac,BA,44.81694,15.87083,
3204186,Bijeljina,BA,44.756939,19.21611,
3203653,Bosanska Krupa,BA,44.8825,16.15139,
3203521,Brcko,BA,44.87278,18.808331,
3203099,Bugojno,BA,44.05722,17.45083,
3202822,Cazin,BA,44.966942,15.94306,
3201984,Doboj,BA,44.734718,18.08778,
3200396,Gorazde,BA,43.666939,18.976391,
3199779,Gracanica,BA,44.703331,18.309719,
3199744,Gradacac,BA,44.880829,18.426941,
3337476,Konjic,BA,43.651939,17.96139,
3194828,Mostar,BA,43.34333,17.80806,
3192409,Prijedor,BA,44.981392,16.71306,
3191281,Sarajevo,BA,43.84864,18.35644,
3188924,Travnik,BA,44.226669,17.670561,
3188893,Trebinje,BA,42.711941,18.34417,
3188582,Tuzla,BA,44.542782,18.669439,
3188225,Velika Kladusa,BA,45.189442,15.81167,
3187609,Visoko,BA,43.988892,18.178061,
3186573,Zenica,BA,44.201389,17.906389,
3374036,Bridgetown,BB,13.1,-59.616669,
1185283,Badarganj,BD,25.67403,89.054901,
1185276,Bajitpur,BD,24.216669,90.949997,
1185270,Bandarban,BD,22.196501,92.226196,
1185274,Baniachang,BD,24.51667,91.366669,
1336137,Barisal,BD,22.701941,90.371109,
1209562,Bera,BD,24.08333,89.616669,
1185263,Bhairab Bazar,BD,24.066669,90.966667,
1477498,Bhandaria,BD,22.486099,90.060898,
1185260,Bhatpara Abhaynagar,BD,23.01531,89.443199,
1185262,Bheramara,BD,24.023199,88.9925,
1336136,Bhola,BD,22.683331,90.650002,
1337233,Bogra,BD,24.85,89.366669,
1210565,Burhanuddin,BD,22.49184,90.723457,
1207047,Char Bhadrasan,BD,23.316669,90.216667,
1185249,Chhagalnaiya,BD,23.030001,91.506943,
1185254,Chhatak,BD,25.033331,91.666672,
1185247,Chilmari,BD,25.55592,89.671516,
1205733,Chittagong,BD,22.333059,91.836388,
1185186,Comilla,BD,23.457781,91.204437,
1336134,Coxs Bazar,BD,21.453239,91.979767,
1185241,Dhaka,BD,23.7104,90.40744,
1203891,Dinajpur,BD,25.62715,88.638641,
1185100,Dohar,BD,23.588329,90.146942,
1203344,Faridpur,BD,23.6,89.833328,
1185224,Feni,BD,23.01861,91.410004,
1185218,Gafargaon,BD,24.433331,90.566673,
1185210,Gaurnadi,BD,22.966669,90.23333,
1185209,Habiganj,BD,24.383329,91.416672,
1201753,Hajiganj,BD,23.25111,90.859169,
1185207,Ishurdi,BD,24.133329,89.083328,
1185106,Jamalpur,BD,24.91667,89.933327,
1336140,Jessore,BD,23.16869,89.21315,
1185204,Jhingergacha,BD,23.1131,89.093803,
1185206,Joypurhat,BD,25.09433,89.02169,
1185272,Kalia,BD,23.0396,89.632797,
1185199,Kaliganj,BD,23.4095,89.140198,
1197895,Kesabpur,BD,22.91667,89.216667,
1185252,Khagrachhari,BD,23.1,91.966667,
1336135,Khulna,BD,22.81348,89.56723,
1337249,Kishorganj,BD,24.433331,90.76667,
1185191,Kushtia,BD,23.901051,89.12207,
1185183,Laksham,BD,23.247219,91.142502,
1196292,Lakshmipur,BD,22.950001,90.833328,
1185181,Lalmanirhat,BD,25.912439,89.447289,
1185251,Lalmohan,BD,22.3384,90.741898,
1337245,Madaripur,BD,23.17528,90.207222,
1462681,Manikchari,BD,22.840799,91.844002,
1185173,Mathba,BD,22.2855,89.962898,
1185166,Maulavi Bazar,BD,24.48333,91.783333,
1185171,Mehendiganj,BD,22.816669,90.533333,
1185165,Mirzapur,BD,24.1,90.099998,
1185167,Morrelgonj,BD,22.453699,89.858704,
1185164,Muktagacha,BD,24.76667,90.23333,
1185162,Mymensingh,BD,24.75,90.400002,
1193823,Nabinagar,BD,23.89167,90.973328,
1185160,Nageswari,BD,25.968809,89.692993,
1185156,Nalchiti,BD,22.633329,90.283333,
1185293,Narail,BD,23.16667,89.5,
1185155,Narayanganj,BD,23.623329,90.501106,
1185117,Narsingdi,BD,23.92083,90.718063,
1337240,Nawabganj,BD,24.59112,88.271019,
1185116,Netrakona,BD,24.883329,90.716667,
1336143,Pabna,BD,24,89.25,
1191368,Palang,BD,23.216669,90.349998,
1185141,Panchagarh,BD,26.331289,88.561996,
1192366,Par Naogaon,BD,24.80287,88.950844,
1185149,Parbatipur,BD,25.664909,88.924698,
1185148,Patiya,BD,22.293119,91.976212,
1191139,Phultala,BD,22.700001,89.51667,
1337239,Pirgaaj,BD,25.860399,88.363503,
1185138,Pirojpur,BD,22.566669,89.98333,
1185236,Raipur,BD,23.049999,90.76667,
1185128,Rajshahi,BD,24.366671,88.599998,
1185127,Ramganj,BD,23.1,90.849998,
1185188,Rangpur,BD,25.75,89.25,
1189638,Raojan,BD,22.53702,91.919838,
1189056,Sakhipur,BD,24.299999,90.183327,
1185120,Sandwip,BD,22.467779,91.456108,
1185239,Sarankhola,BD,22.308201,89.789703,
1188569,Sarishabari,BD,24.73333,89.833328,
1336133,Satkania,BD,22.079599,92.057198,
1185111,Satkhira,BD,22.716669,89.099998,
1185121,Shahzadpur,BD,24.16667,89.599998,
1337248,Sherpur,BD,25.01881,90.017509,
1185108,Shibganj,BD,24.68293,88.159752,
1185115,Sirajganj,BD,24.450001,89.716667,
1185099,Sylhet,BD,24.896669,91.871674,
1336144,Tangail,BD,24.25,89.916672,
1185095,Teknaf,BD,20.862431,92.305817,
1185092,Thakurgaon,BD,26.033331,88.466667,
1185098,Tungi,BD,23.889999,90.40583,
1185920,Tungipara,BD,22.9,89.916672,
1205481,Uttar Char Fasson,BD,22.233219,90.713226,
2803448,Aalst,BE,50.936039,4.0355,
2803443,Aalter,BE,51.090172,3.44693,
2803429,Aarschot,BE,50.987148,4.83695,
2803204,Andenne,BE,50.48941,5.09513,
2803160,Ans,BE,50.6623,5.52029,
2803138,Antwerpen,BE,51.219891,4.40346,
2803073,Arlon,BE,49.683331,5.81667,
2803033,Asse,BE,50.91011,4.19836,
2803010,Ath,BE,50.629372,3.77801,
2802743,Balen,BE,51.168369,5.17027,
2802435,Beerse,BE,51.319271,4.85304,
2802433,Beersel,BE,50.765888,4.3002,
2802170,Beringen,BE,51.049541,5.22606,
2802031,Beveren,BE,51.211868,4.25633,
2801924,Bilzen,BE,50.873249,5.5184,
2801922,Binche,BE,50.411549,4.16469,
2801858,Blankenberge,BE,51.313061,3.13227,
2801494,Boom,BE,51.092419,4.3717,
2801447,Bornem,BE,51.09716,4.24364,
2801226,Boussu,BE,50.43417,3.7944,
2801154,Braine-lAlleud,BE,50.683632,4.36784,
2801150,Braine-le-Comte,BE,50.609791,4.14658,
2801117,Brasschaat,BE,51.291199,4.49182,
2801106,Brecht,BE,51.350239,4.63829,
2800931,Brugge,BE,51.20892,3.22424,
2800866,Brussels,BE,50.850449,4.34878,
2800481,Charleroi,BE,50.411362,4.44448,
2800461,Chasse Royale,BE,50.428421,3.95001,
2800448,Chatelet,BE,50.403381,4.52826,
2800438,Chaudfontaine,BE,50.582802,5.6341,
2800220,Colfontaine,BE,50.414101,3.85569,
2800063,Courcelles,BE,50.463791,4.3747,
2799746,Deinze,BE,50.98175,3.53096,
2799647,Denderleeuw,BE,50.885059,4.07601,
2799645,Dendermonde,BE,51.02869,4.10106,
2799496,Destelbergen,BE,51.059521,3.79899,
2799412,Diepenbeek,BE,50.907688,5.41875,
2799397,Diest,BE,50.989231,5.05062,
2799369,Diksmuide,BE,51.032478,2.86384,
2799365,Dilbeek,BE,50.847988,4.25972,
2799226,Dour,BE,50.395828,3.77792,
2799090,Duffel,BE,51.095539,4.50903,
2799007,Edegem,BE,51.15662,4.44504,
2798987,Eeklo,BE,51.187031,3.55654,
2798615,Essen,BE,51.462719,4.45393,
2798573,Eupen,BE,50.627899,6.03647,
2798551,Evergem,BE,51.105301,3.704,
2798307,Flemalle-Haute,BE,50.599941,5.44471,
2798301,Fleron,BE,50.615162,5.68062,
2798297,Fleurus,BE,50.483509,4.55006,
2798023,Frameries,BE,50.405781,3.89603,
2797779,Geel,BE,51.165569,4.98917,
2797713,Gembloux,BE,50.561489,4.69889,
2797670,Genk,BE,50.965,5.50082,
2797656,Gent,BE,51.049999,3.71667,
2797638,Geraardsbergen,BE,50.77343,3.88223,
2797114,Grimbergen,BE,50.93409,4.37213,
2796833,Haaltert,BE,50.906342,4.00093,
2796696,Halle,BE,50.733849,4.23454,
2796637,Hamme,BE,51.098221,4.13705,
2796542,Harelbeke,BE,50.853432,3.30935,
2796491,Hasselt,BE,50.931061,5.33781,
2796153,Heist-op-den-Berg,BE,51.075371,4.72827,
2796132,Helchteren,BE,51.055908,5.38244,
2796012,Herent,BE,50.908611,4.67056,
2796009,Herentals,BE,51.176552,4.83248,
2795930,Herstal,BE,50.66415,5.62346,
2795912,Herve,BE,50.640831,5.79353,
2795908,Herzele,BE,50.88681,3.89014,
2795800,Heusden,BE,51.03664,5.28013,
2795730,Hoboken,BE,51.176109,4.34844,
2795398,Hoogstraten,BE,51.400291,4.76034,
2795261,Houthalen,BE,51.034271,5.37429,
2795113,Huy,BE,50.51894,5.23284,
2795100,Ieper,BE,50.851139,2.88569,
2795009,Izegem,BE,50.91396,3.21378,
2794788,Kalmthout,BE,51.384418,4.47556,
2794730,Kapellen,BE,51.31377,4.43539,
2794663,Kasterlee,BE,51.24118,4.96651,
2794210,Knokke-Heist,BE,51.349998,3.26667,
2794166,Koksijde,BE,51.116421,2.63772,
2794117,Kontich,BE,51.13213,4.44706,
2794070,Kortenberg,BE,50.88982,4.54353,
2794055,Kortrijk,BE,50.82803,3.26487,
2793508,La Louviere,BE,50.486568,4.18785,
2793446,Lanaken,BE,50.893181,5.6468,
2793144,Lebbeke,BE,51.004639,4.13457,
2793077,Lede,BE,50.966259,3.98594,
2792567,Lessines,BE,50.71104,3.83579,
2792482,Leuven,BE,50.879589,4.70093,
2792413,Liege,BE,50.633732,5.56749,
2792397,Lier,BE,51.131279,4.57042,
2792360,Lille,BE,51.24197,4.82312,
2792235,Lochristi,BE,51.096439,3.83194,
2792196,Lokeren,BE,51.103642,3.99339,
2792179,Lommel,BE,51.23074,5.31349,
2792165,Londerzeel,BE,51.004681,4.30304,
2792073,Louvain-la-Neuve,BE,50.668289,4.61443,
2791964,Maaseik,BE,51.098019,5.78379,
2791961,Maasmechelen,BE,50.96545,5.69452,
2791857,Maldegem,BE,51.207371,3.44511,
2791814,Manage,BE,50.50312,4.23589,
2791744,Marche-en-Famenne,BE,50.22678,5.34416,
2791537,Mechelen,BE,51.025742,4.47762,
2791424,Meise,BE,50.939339,4.32655,
2791343,Menen,BE,50.797218,3.12245,
2791315,Merelbeke,BE,50.994469,3.74621,
2791194,Middelkerke,BE,51.185322,2.82077,
2791067,Mol,BE,51.191879,5.11662,
2790869,Mons,BE,50.454128,3.95229,
2790697,Morlanwelz-Mariemont,BE,50.455021,4.24519,
2790676,Mortsel,BE,51.166969,4.45127,
2790595,Mouscron,BE,50.744968,3.20639,
2790471,Namur,BE,50.4669,4.86746,
2790357,Neerpelt,BE,51.228069,5.4427,
2790135,Nijlen,BE,51.160961,4.67008,
2790114,Ninove,BE,50.827759,4.02657,
2790101,Nivelles,BE,50.598331,4.32848,
2789786,Oostende,BE,51.223389,2.91185,
2789751,Oostkamp,BE,51.15432,3.23128,
2789529,Oudenaarde,BE,50.851681,3.60891,
2789471,Oupeye,BE,50.711842,5.6468,
2789413,Overijse,BE,50.774361,4.53461,
2789232,Peer,BE,51.130299,5.45952,
2789162,Peruwelz,BE,50.50819,3.59373,
2788765,Pont-a-Celles,BE,50.50518,4.36887,
2788726,Poperinge,BE,50.853859,2.72659,
2788521,Putte,BE,51.053371,4.63263,
2788506,Puurs,BE,51.074089,4.28844,
2788499,Quaregnon,BE,50.44067,3.8653,
2788348,Ranst,BE,51.189831,4.56533,
2788088,Riemst,BE,50.809952,5.60131,
2787989,Rixensart,BE,50.712292,4.52529,
2787889,Roeselare,BE,50.946529,3.12269,
2787769,Ronse,BE,50.745739,3.6005,
2787662,Rotselaar,BE,50.953018,4.71665,
2787416,Saint-Ghislain,BE,50.448158,3.81886,
2787356,Saint-Nicolas,BE,50.628368,5.53243,
2787048,Schilde,BE,51.24107,4.58336,
2786963,Schoten,BE,51.25251,4.50268,
2786824,Seraing,BE,50.583618,5.50115,
2786700,Sint-Genesius-Rode,BE,50.746449,4.35754,
2786694,Sint-Gillis-Waas,BE,51.219139,4.12374,
2786641,Sint-Katelijne-Waver,BE,51.06691,4.53469,
2786578,Sint-Niklaas,BE,51.165089,4.1437,
2786559,Sint-Pieters-Leeuw,BE,50.779259,4.24355,
2786545,Sint-Truiden,BE,50.816792,5.18647,
2786420,Soignies,BE,50.579041,4.07129,
2786344,Soumagne,BE,50.61385,5.74679,
2786229,Stabroek,BE,51.33189,4.37127,
2786087,Stekene,BE,51.2099,4.0365,
2785778,Temse,BE,51.127941,4.21372,
2785622,Tervuren,BE,50.823719,4.51418,
2785612,Tessenderlo,BE,51.065128,5.08856,
2785476,Tielt,BE,50.99931,3.32707,
2785470,Tienen,BE,50.807442,4.9378,
2785389,Tongeren,BE,50.78054,5.46484,
2785364,Torhout,BE,51.065601,3.10085,
2785341,Tournai,BE,50.607151,3.38932,
2785169,Tubize,BE,50.69059,4.2009,
2785141,Turnhout,BE,51.32254,4.94471,
2784821,Verviers,BE,50.589069,5.86241,
2784604,Vilvoorde,BE,50.928139,4.42938,
2784548,Vise,BE,50.737598,5.69907,
2784189,Walcourt,BE,50.254009,4.43796,
2784068,Waregem,BE,50.888981,3.42756,
2783985,Waterloo,BE,50.712551,4.4014,
2783941,Wavre,BE,50.717171,4.60138,
2783820,Wervik,BE,50.780689,3.03854,
2783801,Westerlo,BE,51.090488,4.91544,
2783763,Wetteren,BE,51.00526,3.88341,
2783759,Wevelgem,BE,50.799999,3.16667,
2783632,Willebroek,BE,51.06041,4.36019,
2783416,Wuustwezel,BE,51.392139,4.59546,
2783310,Zaventem,BE,50.883652,4.47298,
2783308,Zedelgem,BE,51.142361,3.1368,
2783293,Zele,BE,51.065659,4.0403,
2783274,Zemst,BE,50.983181,4.46079,
2783204,Zoersel,BE,51.26825,4.71296,
2783188,Zonhoven,BE,50.990639,5.36819,
2783175,Zottegem,BE,50.86956,3.81052,
2783089,Zwevegem,BE,50.812679,3.33848,
2783081,Zwijndrecht,BE,51.219791,4.32664,
2362909,Banfora,BF,10.63333,-4.76667,
2362344,Bobo-Dioulasso,BF,11.17715,-4.2979,
2361946,Boulsa,BF,12.6675,-0.57583,
2361845,Bousse,BF,12.66056,-1.89222,
2361477,Dedougou,BF,12.46667,-3.46667,
2361373,Diapaga,BF,12.07083,1.78889,
2361177,Djibo,BF,14.10222,-1.63056,
2361082,Dori,BF,14.0354,-0.0345,
2360886,Fada NGourma,BF,12.06222,0.35778,
2577162,Gaoua,BF,10.29917,-3.25083,
2360615,Garango,BF,11.8,-0.55056,
2360238,Gourcy,BF,13.21667,-2.35,
2360073,Hounde,BF,11.5,-3.51667,
2359608,Kaya,BF,13.09167,-1.08444,
2359317,Kokologo,BF,12.18972,-1.88556,
2359227,Kombissiri,BF,12.06556,-1.3375,
2359142,Kongoussi,BF,13.32583,-1.53472,
2358946,Koudougou,BF,12.25,-2.36667,
2358738,Koupela,BF,12.17944,-0.35167,
2358382,Leo,BF,11.1,-2.1,
2358100,Manga,BF,11.66361,-1.07306,
2357163,Nouna,BF,12.73333,-3.86667,
2577164,Orodara,BF,10.94917,-4.93417,
2357048,Ouagadougou,BF,12.36423,-1.53834,
2357043,Ouahigouya,BF,13.58278,-2.42158,
2356454,Po,BF,11.16972,-1.145,
2356228,Reo,BF,12.31667,-2.46667,
2354675,Tenkodogo,BF,11.78,-0.36972,
2354349,Titao,BF,13.76667,-2.06667,
2354176,Tougan,BF,13.06667,-3.06667,
2353688,Yako,BF,12.96667,-2.26667,
2353197,Zorgho,BF,12.24889,-0.61583,
733618,Asenovgrad,BG,42.01667,24.866671,
733579,Aytos,BG,42.700001,27.25,
733264,Berkovitsa,BG,43.236111,23.12583,
733191,Blagoevgrad,BG,42.01667,23.1,
733014,Botevgrad,BG,42.900002,23.783331,
732770,Burgas,BG,42.506062,27.46781,
732491,Cherven Bryag,BG,43.26667,24.1,
732452,Chirpan,BG,42.200001,25.33333,
732263,Dimitrovgrad,BG,42.049999,25.6,
726418,Dobrich,BG,43.566669,27.83333,
726872,Dupnitsa,BG,42.26667,23.116671,
731549,Gabrovo,BG,42.874722,25.334169,
731233,Gorna Oryakhovitsa,BG,43.127781,25.70167,
731108,Gotse Delchev,BG,41.566669,23.73333,
730565,Karlovo,BG,42.633331,24.799999,
730559,Karnobat,BG,42.650002,26.98333,
730496,Kazanluk,BG,42.616669,25.4,
730442,Kharmanli,BG,41.933331,25.9,
730435,Khaskovo,BG,41.940281,25.569441,
729794,Kurdzhali,BG,41.650002,25.366671,
729730,Kyustendil,BG,42.28389,22.691111,
729581,Lom,BG,43.813889,23.236111,
729559,Lovech,BG,43.133331,24.716669,
729114,Montana,BG,43.412498,23.225,
728742,Nova Zagora,BG,42.48333,26.01667,
728448,Panagyurishte,BG,42.5,24.183331,
728378,Pazardzhik,BG,42.200001,24.33333,
728330,Pernik,BG,42.599998,23.033331,
728317,Peshtera,BG,42.033329,24.299999,
728288,Petrich,BG,41.400002,23.216669,
728203,Pleven,BG,43.416672,24.616671,
728193,Plovdiv,BG,42.150002,24.75,
728075,Popovo,BG,43.349998,26.23333,
727791,Rakovski,BG,42.299999,24.966669,
727696,Razgrad,BG,43.533329,26.51667,
727523,Ruse,BG,43.856392,25.970831,
727462,Samokov,BG,42.333328,23.549999,
727447,Sandanski,BG,41.566669,23.283331,
727337,Sevlievo,BG,43.025829,25.113609,
727233,Shumen,BG,43.270641,26.922859,
727221,Silistra,BG,44.116669,27.26667,
727079,Sliven,BG,42.685829,26.32917,
727030,Smolyan,BG,41.585281,24.69194,
727011,Sofia,BG,42.69751,23.32415,
726848,Stara Zagora,BG,42.432781,25.641939,
726546,Svilengrad,BG,41.76667,26.200001,
726534,Svishtov,BG,43.623058,25.353889,
726409,Tonchevtsi,BG,42.900002,25.316669,
726320,Troyan,BG,42.894272,24.715891,
726174,Turgovishte,BG,43.259171,26.58917,
726050,Varna,BG,43.216671,27.91667,
725993,Veliko Turnovo,BG,43.081242,25.62904,
725988,Velingrad,BG,42.027241,23.995689,
725905,Vidin,BG,43.990002,22.872499,
725712,Vratsa,BG,43.209999,23.5625,
725578,Yambol,BG,42.48333,26.5,
290332,Al Muharraq,BH,26.257219,50.611938,
385038,Ar Rifa,BH,26.129999,50.555,
290269,Dar Kulayb,BH,26.068609,50.503891,
290215,Jidd Hafs,BH,26.218611,50.547779,
290247,Madinat Hamad,BH,26.11528,50.506939,
290187,Madinat Isa,BH,26.173611,50.547779,
290340,Manama,BH,26.215361,50.583199,
290104,Sitrah,BH,26.15472,50.62056,
425378,Bujumbura,BI,-3.3822,29.364401,
423328,Bururi,BI,-3.94877,29.62438,
426272,Gitega,BI,-3.4264,29.930799,
430952,Kayanza,BI,-2.9221,29.629299,
422232,Makamba,BI,-4.1348,29.804001,
425551,Muramvya,BI,-3.2682,29.607901,
431748,Muyinga,BI,-2.8451,30.3414,
430569,Ngozi,BI,-2.9075,29.830601,
433635,Rutana,BI,-3.9279,29.992001,
426700,Ruyigi,BI,-3.47639,30.24861,
2395915,Abomey,BJ,7.18286,1.99119,
2395914,Abomey-Calavi,BJ,6.44852,2.35566,
2395635,Allada,BJ,6.66547,2.15138,
2395568,Aplahoue,BJ,6.93333,1.68333,
2395317,Banikoara,BJ,11.29845,2.43856,
2395261,Bassila,BJ,9.00814,1.6654,
2395182,Bembereke,BJ,10.22827,2.66335,
2395049,Bohicon,BJ,7.17826,2.0667,
2394824,Come,BJ,6.40764,1.88198,
2394819,Cotonou,BJ,6.36536,2.41833,
2394814,Cove,BJ,7.22097,2.34017,
2394711,Dassa-Zoume,BJ,7.75,2.18333,
2394560,Djougou,BJ,9.70853,1.66598,
2394545,Dogbo,BJ,6.81667,1.78333,
2393693,Kandi,BJ,11.13417,2.93861,
2393551,Ketou,BJ,7.36332,2.59978,
2392897,Lokossa,BJ,6.63869,1.71674,
2392837,Malanville,BJ,11.86846,3.38989,
2392601,Natitingou,BJ,10.30416,1.37962,
2392505,Nikki,BJ,9.94009,3.21075,
2392308,Ouidah,BJ,6.36307,2.08506,
2392204,Parakou,BJ,9.33716,2.63031,
2392108,Pobe,BJ,6.98008,2.6649,
2392087,Porto-Novo,BJ,6.49646,2.60359,
2392009,Sakete,BJ,6.73618,2.65866,
2391895,Savalou,BJ,7.92807,1.97558,
2391893,Save,BJ,8.04253,2.48599,
2391455,Tanguieta,BJ,10.62118,1.26651,
2391377,Tchaourou,BJ,8.88649,2.59752,
3579132,Gustavia,BL,17.896179,-62.849781,
3573197,Hamilton,BM,32.291489,-64.777969,
1820906,Bandar Seri Begawan,BN,4.94029,114.948059,
1820491,Kuala Belait,BN,4.58333,114.183327,
1820187,Seria,BN,4.61667,114.316673,
1820071,Tutong,BN,4.8,114.650002,
3922414,Camiri,BO,-20.049999,-63.51667,
3919998,Cobija,BO,-11.02671,-68.76918,
3919968,Cochabamba,BO,-17.3895,-66.156799,
3918937,Cotoca,BO,-17.816669,-63.049999,
3915350,Guayaramerin,BO,-10.83676,-65.361359,
3914839,Huanuni,BO,-18.26667,-66.849998,
3911925,La Paz,BO,-16.5,-68.150002,
3902377,La Santisima Trinidad,BO,-14.83333,-64.900002,
3911409,Llallagua,BO,-18.41667,-66.633331,
3910291,Mizque,BO,-17.94101,-65.340157,
3910027,Montero,BO,-17.33333,-63.25,
3909234,Oruro,BO,-17.98333,-67.150002,
3907584,Potosi,BO,-19.583611,-65.753059,
3907080,Punata,BO,-17.549999,-65.833328,
3906466,Riberalta,BO,-10.98333,-66.099998,
3905792,San Borja,BO,-14.81667,-66.849998,
3905658,San Ignacio de Velasco,BO,-16.366671,-60.950001,
3904906,Santa Cruz de la Sierra,BO,-17.799999,-63.166672,
3904666,Santiago del Torno,BO,-17.98333,-63.383331,
3903987,Sucre,BO,-19.033319,-65.262741,
3903320,Tarija,BO,-21.53549,-64.729561,
3902202,Tupiza,BO,-21.450001,-65.716667,
3901504,Villa Yapacani,BO,-17.4,-63.833328,
3901547,Villamontes,BO,-21.25,-63.5,
3901501,Villazon,BO,-22.08659,-65.594223,
3901301,Warnes,BO,-17.5,-63.166672,
3901178,Yacuiba,BO,-22.037991,-63.67968,
3473267,Abaete,BR,-19.16,-45.445831,
3408424,Abaetetuba,BR,-1.71806,-48.8825,
3393768,Abidos,BR,-1.9175,-55.518059,
3408404,Abreu e Lima,BR,-7.91167,-34.902779,
3408368,Acarau,BR,-2.88556,-40.119999,
3408343,Acopiara,BR,-6.09528,-39.452499,
3408337,Acu,BR,-5.57667,-36.908611,
3473157,Adamantina,BR,-21.68528,-51.072498,
3408274,Afogados da Ingazeira,BR,-7.75083,-37.639172,
3408175,Agua Preta,BR,-8.7075,-35.53056,
3472969,Aguai,BR,-22.059441,-46.978611,
3408166,Aguas Belas,BR,-9.11139,-37.123058,
3472869,Aguas de Lindoia,BR,-22.476391,-46.632778,
3472848,Aguas Vermelhas,BR,-15.74722,-41.459999,
3472825,Agudos,BR,-22.46917,-48.987499,
3472808,Aimores,BR,-19.495831,-41.063889,
3408100,Alagoa Grande,BR,-7.15833,-35.630001,
3472766,Alagoinhas,BR,-12.13556,-38.41917,
3472666,Alegre,BR,-20.763611,-41.533058,
3472638,Alegrete,BR,-29.78306,-55.791939,
3472609,Alem Paraiba,BR,-21.887779,-42.704441,
3407980,Alenquer,BR,-1.94167,-54.738331,
3472603,Alfenas,BR,-21.429171,-45.94722,
3407903,Almeirim,BR,-1.52333,-52.581669,
3472520,Almenara,BR,-16.183611,-40.694439,
3472518,Almirante Tamandare,BR,-25.32472,-49.310001,
3407882,Altamira,BR,-3.20333,-52.20639,
3407797,Altos,BR,-5.03806,-42.459999,
3472417,Alvares Machado,BR,-22.079439,-51.471939,
3407758,Amaraji,BR,-8.38306,-35.452499,
3472370,Amargosa,BR,-13.03028,-39.604721,
3472343,Americana,BR,-22.73917,-47.33139,
3472338,Americo Brasiliense,BR,-21.72444,-48.101669,
3472311,Amparo,BR,-22.701111,-46.764439,
3407669,Ananindeua,BR,-1.36556,-48.372219,
3472287,Anapolis,BR,-16.32667,-48.952782,
3472284,Anastacio,BR,-20.48361,-55.806938,
3472254,Andradas,BR,-22.06806,-46.569172,
3472248,Andradina,BR,-20.896111,-51.37944,
3472177,Angra dos Reis,BR,-23.00667,-44.318062,
3472138,Anicuns,BR,-16.461109,-49.96167,
3472048,Antonina,BR,-25.42861,-48.711941,
3471949,Aparecida,BR,-22.846939,-45.229721,
6316406,Aparecida de Goiania,BR,-16.82333,-49.243889,
3471940,Aparecida do Taboado,BR,-20.08667,-51.093609,
3471927,Apiai,BR,-24.509439,-48.842499,
3407440,Apodi,BR,-5.66417,-37.798889,
3471910,Apucarana,BR,-23.550831,-51.460831,
3471896,Aquidauana,BR,-20.471109,-55.78722,
3407407,Aquiraz,BR,-3.90139,-38.391109,
3471872,Aracaju,BR,-10.91111,-37.071671,
3407378,Aracati,BR,-4.56167,-37.769718,
3471859,Aracatuba,BR,-21.208891,-50.432781,
3471854,Araci,BR,-11.33333,-38.966671,
3471849,Aracoiaba da Serra,BR,-23.50528,-47.61417,
3471848,Aracruz,BR,-19.82028,-40.273331,
3471846,Aracuai,BR,-16.84972,-42.070278,
3471840,Aragarcas,BR,-15.8975,-52.250832,
3407357,Araguaina,BR,-7.19111,-48.207218,
3471830,Araguari,BR,-18.647221,-48.187222,
3407327,Arapiraca,BR,-9.7525,-36.66111,
3471798,Arapongas,BR,-23.419439,-51.424438,
3471772,Ararangua,BR,-28.934719,-49.485828,
3471766,Araraquara,BR,-21.794439,-48.17556,
3471758,Araras,BR,-22.356939,-47.384171,
3407258,Arari,BR,-3.45361,-44.779999,
3407243,Araripina,BR,-7.57611,-40.498329,
3471715,Araruama,BR,-22.87278,-42.34306,
3471697,Araucaria,BR,-25.59306,-49.410278,
3471691,Araxa,BR,-19.59333,-46.940559,
3471683,Arcos,BR,-20.28194,-45.53944,
3407216,Arcoverde,BR,-8.41889,-37.05389,
3407194,Areia Branca,BR,-4.95611,-37.13694,
3665202,Aripuana,BR,-9.16667,-60.633331,
3665199,Ariquemes,BR,-9.91333,-63.040829,
3471487,Armacao de Buzios,BR,-22.746941,-41.881672,
3471451,Arraial do Cabo,BR,-22.96611,-42.027779,
3471428,Arroio do Meio,BR,-29.40111,-51.945,
3471422,Arroio Grande,BR,-32.237499,-53.086941,
3471395,Artur Nogueira,BR,-22.573059,-47.172501,
3471393,Aruja,BR,-23.396111,-46.320831,
3471374,Assis,BR,-22.661671,-50.41222,
3471368,Astorga,BR,-23.2325,-51.665562,
3406996,Atalaia,BR,-9.50194,-36.022781,
3471335,Atibaia,BR,-23.11694,-46.550282,
3406961,Augusto Correa,BR,-1.02167,-46.634998,
3471291,Avare,BR,-23.09861,-48.925831,
3406910,Bacabal,BR,-4.29167,-44.791672,
3471196,Bage,BR,-31.33139,-54.106941,
3471061,Baixo Guandu,BR,-19.51889,-41.015831,
3471039,Balneario Camboriu,BR,-26.990561,-48.63472,
3406545,Balsas,BR,-7.5325,-46.035561,
3471005,Bambui,BR,-20.00639,-45.97694,
3470912,Bandeirantes,BR,-23.110001,-50.3675,
3470878,Barao de Cocais,BR,-19.945829,-43.487221,
3470858,Barbacena,BR,-21.22583,-43.773609,
3406442,Barbalha,BR,-7.31111,-39.304169,
3406429,Barcarena,BR,-1.50583,-48.625832,
3470825,Bariri,BR,-22.07444,-48.74028,
3470821,Barra,BR,-11.08944,-43.14167,
3470776,Barra Bonita,BR,-22.49472,-48.55806,
3470730,Barra de Sao Francisco,BR,-18.754999,-40.890831,
3470718,Barra do Bugres,BR,-15.0725,-57.18111,
3406318,Barra do Corda,BR,-5.5,-45.25,
3470709,Barra do Garcas,BR,-15.89,-52.256672,
3470691,Barra do Pirai,BR,-22.469999,-43.825562,
3470674,Barra dos Coqueiros,BR,-10.90889,-37.038609,
3470636,Barra Mansa,BR,-22.54417,-44.171391,
3470597,Barra Velha,BR,-26.632219,-48.684719,
3406263,Barras,BR,-4.24444,-42.294441,
3470583,Barreiras,BR,-12.15278,-44.990002,
3406196,Barreirinhas,BR,-2.74694,-42.826389,
3470470,Barreiro do Jaiba,BR,-15.61667,-43.599998,
3406160,Barreiros,BR,-8.81833,-35.18639,
3470451,Barretos,BR,-20.55722,-48.56778,
3470428,Barrinha,BR,-21.193609,-48.163891,
3470369,Barroso,BR,-21.186939,-43.97583,
3470353,Barueri,BR,-23.510559,-46.87611,
3470341,Bastos,BR,-21.92194,-50.733891,
3470324,Batatais,BR,-20.891109,-47.584999,
3405954,Baturite,BR,-4.32861,-38.88472,
3470279,Bauru,BR,-22.31472,-49.060558,
3405940,Bayeux,BR,-7.125,-34.93222,
3470264,Bebedouro,BR,-20.94944,-48.479172,
3405924,Beberibe,BR,-4.17972,-38.130562,
3470177,Bela Vista,BR,-22.108891,-56.521111,
3405863,Belem,BR,-6.69167,-35.533329,
3405870,Belem,BR,-1.45583,-48.50444,
3470142,Belford Roxo,BR,-22.76417,-43.399441,
3470127,Belo Horizonte,BR,-19.92083,-43.937778,
3405812,Belo Jardim,BR,-8.33556,-36.424171,
3470117,Belo Oriente,BR,-19.219999,-42.483608,
3405792,Benevides,BR,-1.36139,-48.24472,
3470073,Bento Goncalves,BR,-29.171391,-51.519169,
3470052,Bertioga,BR,-23.854441,-46.138611,
3470044,Betim,BR,-19.967779,-44.19833,
3405738,Bezerros,BR,-8.23333,-35.79694,
3470003,Biguacu,BR,-27.494169,-48.65556,
3469989,Birigui,BR,-21.28861,-50.34,
3469984,Biritiba Mirim,BR,-23.5725,-46.038609,
3469968,Blumenau,BR,-26.919439,-49.066109,
3469932,Boa Esperanca,BR,-21.09,-45.56583,
3405616,Boa Viagem,BR,-5.1275,-39.73222,
3664980,Boa Vista,BR,2.81972,-60.673328,
3469601,Bocaiuva,BR,-17.10778,-43.814999,
3469540,Boituva,BR,-23.283331,-47.672218,
3405380,Bom Conselho,BR,-9.16972,-36.679722,
3469516,Bom Despacho,BR,-19.736389,-45.25222,
3469437,Bom Jesus da Lapa,BR,-13.255,-43.41806,
3469425,Bom Jesus do Itabapoana,BR,-21.13389,-41.679722,
3469136,Botucatu,BR,-22.88583,-48.445,
3469115,Braco do Norte,BR,-28.275,-49.165562,
3405006,Braganca,BR,-1.05361,-46.76556,
3469092,Braganca Paulista,BR,-22.951941,-46.541939,
3469058,Brasilia,BR,-15.77972,-47.929722,
3404862,Brejo da Madre de Deus,BR,-8.14583,-36.371109,
3404833,Brejo Santo,BR,-7.49333,-38.987221,
3404817,Breves,BR,-1.68222,-50.480282,
3468902,Brodosqui,BR,-20.99139,-47.658611,
3468899,Brotas,BR,-22.28417,-48.126671,
3468894,Brumadinho,BR,-20.14333,-44.199718,
3468893,Brumado,BR,-14.20361,-41.665279,
3468879,Brusque,BR,-27.098061,-48.9175,
3468858,Buerarema,BR,-14.95944,-39.299721,
3404766,Buique,BR,-8.62306,-37.15583,
3468802,Buri,BR,-23.797501,-48.592781,
3404722,Buriti Bravo,BR,-5.83722,-43.833611,
3468732,Buritis,BR,-15.61778,-46.423328,
3468720,Buritizeiro,BR,-17.35111,-44.962219,
3468704,Butia,BR,-30.11972,-51.962219,
3404558,Cabedelo,BR,-6.98111,-34.833889,
3404545,Cabo,BR,-8.28333,-35.033329,
3468615,Cabo Frio,BR,-22.87944,-42.018608,
3468592,Cabreuva,BR,-23.307501,-47.132778,
3404513,Cabrobo,BR,-8.51417,-39.310001,
3468570,Cacador,BR,-26.77528,-51.014999,
3468562,Cacapava,BR,-23.10083,-45.70694,
3468560,Cacapava do Sul,BR,-30.51222,-53.49139,
3468535,Cachoeira,BR,-12.61833,-38.95583,
3468436,Cachoeira do Sul,BR,-30.039169,-52.89389,
3468425,Cachoeiras de Macacu,BR,-22.4625,-42.653061,
3468403,Cachoeirinha,BR,-29.951111,-51.093891,
3468376,Cachoeiro de Itapemirim,BR,-20.84889,-41.112782,
3925212,Cacoal,BR,-11.43861,-61.44722,
3468327,Caete,BR,-19.879999,-43.66972,
3468317,Caetite,BR,-14.06944,-42.474998,
3404117,Caico,BR,-6.45833,-37.097778,
3468215,Caieiras,BR,-23.36417,-46.740559,
3468158,Cajamar,BR,-23.35611,-46.876942,
3468157,Cajati,BR,-24.736111,-48.12278,
3404020,Cajazeiras,BR,-6.89028,-38.555279,
3403941,Cajueiro,BR,-9.71667,-36.450001,
3468121,Cajuru,BR,-21.27528,-47.304169,
3468100,Caldas Novas,BR,-17.741671,-48.625,
3468031,Camacari,BR,-12.6975,-38.324169,
3468023,Camanducaia,BR,-22.75528,-46.144718,
3468014,Camaqua,BR,-30.85111,-51.812222,
3467985,Cambara,BR,-23.046391,-50.073608,
3467978,Cambe,BR,-23.275829,-51.278332,
3467956,Cambui,BR,-22.612221,-46.057499,
3403697,Cameta,BR,-2.24444,-49.495831,
3403687,Camocim,BR,-2.90222,-40.84111,
3403642,Campina Grande,BR,-7.23056,-35.881111,
3467877,Campina Grande do Sul,BR,-25.305559,-49.055279,
3467865,Campinas,BR,-22.90556,-47.060829,
6316729,Campinas,BR,-27.59444,-48.606941,
3403611,Campo Alegre,BR,-9.78194,-36.35083,
3467796,Campo Belo,BR,-20.897221,-45.277222,
3467760,Campo Formoso,BR,-10.5075,-40.321388,
3467747,Campo Grande,BR,-20.44278,-54.646389,
3467736,Campo Largo,BR,-25.458611,-49.528332,
3403566,Campo Maior,BR,-4.82778,-42.16861,
3467717,Campo Mourao,BR,-24.045561,-52.38306,
3467673,Campo Verde,BR,-20.41667,-54.066669,
3467693,Campos,BR,-21.75,-41.299999,
3467687,Campos Belos,BR,-13.03667,-46.771671,
3467684,Campos do Jordao,BR,-22.739441,-45.591389,
3467680,Campos Gerais,BR,-21.235001,-45.75861,
3467677,Campos Novos,BR,-27.40167,-51.224998,
3403534,Campos Sales,BR,-7.07444,-40.37611,
3467577,Canavieiras,BR,-15.675,-38.94722,
3467550,Candelaria,BR,-29.66917,-52.788891,
3467542,Candido Mota,BR,-22.746389,-50.38694,
3467530,Canela,BR,-29.365561,-50.815559,
3403362,Canguaretama,BR,-6.38,-35.128891,
3467512,Cangucu,BR,-31.395,-52.67556,
3403353,Caninde,BR,-4.35889,-39.311668,
3467467,Canoas,BR,-29.91778,-51.183609,
3467452,Canoinhas,BR,-26.177219,-50.389999,
3403208,Capanema,BR,-1.19583,-47.180828,
3467371,Capao Bonito,BR,-24.005831,-48.349442,
3467362,Capao da Canoa,BR,-29.74556,-50.00972,
3467319,Capela,BR,-10.50333,-37.05278,
3467305,Capelinha,BR,-17.691389,-42.515831,
3467272,Capim Grosso,BR,-11.38111,-40.012779,
3467261,Capinzal,BR,-27.343611,-51.611938,
3403127,Capitao Poco,BR,-1.74639,-47.059441,
3467197,Capivari,BR,-22.995001,-47.507778,
3467081,Caraguatatuba,BR,-23.620279,-45.413059,
3467026,Carandai,BR,-20.953609,-43.806389,
3467012,Carangola,BR,-20.733061,-42.029442,
3466998,Carapicuiba,BR,-23.522499,-46.83556,
3466988,Caratinga,BR,-19.789721,-42.139172,
3664659,Carauari,BR,-4.88278,-66.895828,
3466978,Carazinho,BR,-28.28389,-52.786388,
3466933,Carlos Barbosa,BR,-29.297501,-51.503609,
3466903,Carmo do Cajuru,BR,-20.18417,-44.771111,
3466902,Carmo do Paranaiba,BR,-19.00083,-46.316109,
3402724,Carolina,BR,-7.33278,-47.46944,
3402721,Carpina,BR,-7.85083,-35.254719,
3402655,Caruaru,BR,-8.28333,-35.976109,
3466824,Casa Branca,BR,-21.77389,-47.086391,
3402613,Cascavel,BR,-4.13306,-38.24194,
3466779,Cascavel,BR,-24.95583,-53.45528,
3466763,Casimiro de Abreu,BR,-22.48056,-42.20417,
3466750,Cassilandia,BR,-19.113331,-51.734169,
3402591,Castanhal,BR,-1.29389,-47.926392,
3466723,Castelo,BR,-20.603609,-41.184719,
3466704,Castro,BR,-24.791109,-50.01194,
3466698,Cataguases,BR,-21.38917,-42.696671,
3466696,Catalao,BR,-18.165831,-47.946388,
3466692,Catanduva,BR,-21.137779,-48.972778,
3402528,Catende,BR,-8.66667,-35.716671,
3402465,Catole do Rocha,BR,-6.34389,-37.74667,
3466641,Catu,BR,-12.35306,-38.378891,
3402429,Caucaia,BR,-3.73611,-38.653061,
3466547,Caxambu,BR,-21.977221,-44.932499,
3466537,Caxias do Sul,BR,-29.16806,-51.17944,
3402360,Ceara Mirim,BR,-5.63444,-35.42556,
3466481,Celso Ramos,BR,-27.634439,-51.336391,
3466436,Ceres,BR,-15.30833,-49.598331,
3466429,Cerquilho,BR,-23.165001,-47.74361,
3402271,Cha Grande,BR,-8.23833,-35.46167,
3402229,Chapadinha,BR,-3.74167,-43.360279,
3466296,Chapeco,BR,-27.09639,-52.618328,
3466261,Charqueadas,BR,-29.95472,-51.625278,
3466174,Cianorte,BR,-23.66333,-52.605,
3466171,Cicero Dantas,BR,-10.6,-38.383331,
3466062,Claudio,BR,-20.443331,-44.765831,
3466041,Coaraci,BR,-14.64083,-39.551109,
3664539,Coari,BR,-4.085,-63.141392,
3402000,Codo,BR,-4.45528,-43.885559,
3401992,Coelho Neto,BR,-4.25667,-43.012779,
3465944,Colatina,BR,-19.53944,-40.630562,
3401963,Colinas,BR,-6.02583,-44.249168,
3465927,Colombo,BR,-25.29167,-49.224171,
3465881,Colorado,BR,-22.8375,-51.973061,
3465769,Conceicao da Barra,BR,-18.59333,-39.73222,
3465767,Conceicao da Feira,BR,-12.50583,-38.998611,
3465764,Conceicao das Alagoas,BR,-19.914721,-48.388329,
3401845,Conceicao do Araguaia,BR,-8.25778,-49.264721,
3465748,Conceicao do Coite,BR,-11.56389,-39.28278,
3465758,Conceicao do Jacuipe,BR,-12.31667,-38.76667,
3465731,Conchal,BR,-22.33028,-47.172501,
3465721,Concordia,BR,-27.234171,-52.027779,
3401830,Condado,BR,-7.58583,-35.105831,
3385077,Conde,BR,-7.25972,-34.907501,
3465713,Conde,BR,-11.81361,-37.610561,
3465671,Congonhas,BR,-20.49972,-43.85778,
3465644,Conselheiro Lafaiete,BR,-20.66028,-43.78611,
3465624,Contagem,BR,-19.931669,-44.053612,
3465527,Cordeiro,BR,-22.02861,-42.360828,
3465524,Cordeiropolis,BR,-22.481939,-47.456669,
3465512,Corinto,BR,-18.380831,-44.45639,
3401703,Coroata,BR,-4.13,-44.124168,
3465487,Coromandel,BR,-18.47333,-47.200279,
3465476,Coronel Fabriciano,BR,-19.51861,-42.628891,
3465459,Coronel Vivida,BR,-25.979719,-52.56778,
3465342,Corumba,BR,-19.009171,-57.653332,
3465329,Coruripe,BR,-10.12556,-36.17556,
3465320,Cosmopolis,BR,-22.64583,-47.19611,
3465284,Cotia,BR,-23.603889,-46.91917,
3465228,Coxim,BR,-18.50667,-54.759998,
3401548,Crateus,BR,-5.17833,-40.677502,
3401545,Crato,BR,-7.23417,-39.409439,
3465209,Cravinhos,BR,-21.340281,-47.729439,
3465196,Criciuma,BR,-28.6775,-49.36972,
3465164,Cristalina,BR,-16.76861,-47.613609,
3465108,Cruz Alta,BR,-28.638611,-53.606392,
3465105,Cruz das Almas,BR,-12.67,-39.10194,
3465090,Cruzeiro,BR,-22.576111,-44.96278,
3465083,Cruzeiro do Oeste,BR,-23.785,-53.07333,
3465059,Cubatao,BR,-23.895,-46.425282,
3465038,Cuiaba,BR,-15.59611,-56.096668,
3401340,Cupira,BR,-8.61667,-35.950001,
3464975,Curitiba,BR,-25.42778,-49.27306,
3464974,Curitibanos,BR,-27.28278,-50.584438,
3401283,Currais Novos,BR,-6.26083,-36.51778,
3401148,Cururupu,BR,-1.82833,-44.868328,
3464891,Curvelo,BR,-18.75639,-44.430828,
3401138,Custodia,BR,-8.0875,-37.643059,
3401109,Delmiro Gouveia,BR,-9.38861,-37.999168,
3401106,Demerval Lobao,BR,-5.35833,-42.676392,
3464809,Descalvado,BR,-21.903891,-47.619438,
3464739,Diadema,BR,-23.68611,-46.62278,
3464728,Diamantina,BR,-18.249439,-43.600281,
3464724,Diamantino,BR,-14.40861,-56.44611,
3464688,Divinopolis,BR,-20.138889,-44.883888,
3464618,Dois Corregos,BR,-22.36611,-48.38028,
3464579,Dois Vizinhos,BR,-25.73361,-53.05722,
3464547,Dom Pedrito,BR,-30.98278,-54.673061,
3400969,Dom Pedro,BR,-4.48333,-44.450001,
3464460,Dourados,BR,-22.221109,-54.805561,
3464374,Duque de Caxias,BR,-22.785561,-43.311668,
3664321,Eirunepe,BR,-6.66028,-69.873611,
3464329,Eloi Mendes,BR,-21.610001,-45.565281,
3464305,Embu,BR,-23.64889,-46.852219,
3464304,Embu Guacu,BR,-23.83222,-46.81139,
3464274,Encantado,BR,-29.236111,-51.86972,
3464255,Encruzilhada do Sul,BR,-30.54389,-52.521938,
3464100,Entre Rios,BR,-11.94194,-38.084438,
3464073,Erechim,BR,-27.634171,-52.273891,
3400804,Escada,BR,-8.35917,-35.22361,
3464008,Esmeraldas,BR,-19.762501,-44.313889,
3400752,Esperanca,BR,-7.03306,-35.85722,
3400740,Esperantina,BR,-3.90167,-42.233608,
3463939,Espinosa,BR,-14.92611,-42.819172,
3453807,Espirito Santo do Pinhal,BR,-22.115829,-46.682781,
3463920,Esplanada,BR,-11.79611,-37.945,
3463900,Estancia,BR,-11.26833,-37.438332,
3463865,Estancia Velha,BR,-29.648331,-51.173889,
3463859,Esteio,BR,-29.861389,-51.179169,
3400617,Estreito,BR,-5.78333,-43.25,
3463762,Estrela,BR,-28.06111,-50.938332,
3463698,Euclides da Cunha,BR,-10.5075,-39.015831,
3400558,Eusebio,BR,-3.89,-38.450562,
3400567,Extremoz,BR,-5.70556,-35.30722,
3463605,Farroupilha,BR,-29.225,-51.347778,
3463478,Feira de Santana,BR,-12.26667,-38.966671,
3463432,Fernandopolis,BR,-20.28389,-50.246391,
3463422,Ferraz de Vasconcelos,BR,-23.540831,-46.36861,
3463271,Flores da Cunha,BR,-29.028891,-51.181671,
3399518,Floresta,BR,-8.60111,-38.568611,
3399506,Floriano,BR,-6.76694,-43.022499,
3463237,Florianopolis,BR,-27.59667,-48.549171,
3664207,Fonte Boa,BR,-2.51389,-66.091667,
3463174,Formiga,BR,-20.464439,-45.426392,
3463140,Formosa,BR,-15.53722,-47.334438,
3463066,Forquilhinha,BR,-28.747499,-49.472221,
3399415,Fortaleza,BR,-3.71722,-38.54306,
3463030,Foz do Iguacu,BR,-25.547779,-54.588058,
3463011,Franca,BR,-20.53861,-47.400829,
3462996,Francisco Beltrao,BR,-26.08111,-53.055,
3462980,Francisco Morato,BR,-23.28167,-46.745281,
3462964,Franco da Rocha,BR,-23.321671,-46.72694,
3462956,Frederico Westphalen,BR,-27.359171,-53.39444,
3462916,Frutal,BR,-20.024719,-48.940559,
3399132,Gameleira,BR,-8.58444,-35.386669,
3462601,Gandu,BR,-13.74389,-39.486671,
3399058,Garanhuns,BR,-8.89028,-36.492779,
3462580,Garca,BR,-22.21056,-49.656109,
3462557,Garibaldi,BR,-29.256109,-51.533611,
3462535,Gaspar,BR,-26.931391,-48.958889,
3398920,Gloria do Goita,BR,-8.00167,-35.292782,
3398904,Goiana,BR,-7.56056,-35.002499,
3462378,Goianesia,BR,-15.3175,-49.1175,
3462377,Goiania,BR,-16.67861,-49.253891,
3462376,Goianira,BR,-16.496111,-49.426392,
3462374,Goias,BR,-15.93444,-50.140282,
3462371,Goiatuba,BR,-18.012501,-49.354721,
3462315,Governador Valadares,BR,-18.85111,-41.94944,
3398856,Grajau,BR,-5.81944,-46.138611,
3398706,Granja,BR,-3.12028,-40.826111,
3398691,Gravata,BR,-8.20111,-35.56472,
3462089,Gravatai,BR,-29.944441,-50.99194,
3462022,Guacui,BR,-20.77556,-41.67944,
3473964,Guaiba,BR,-30.11389,-51.325001,
3461995,Guaira,BR,-20.318331,-48.310558,
3398614,Guaiuba,BR,-4.03972,-38.637218,
3925075,Guajara Mirim,BR,-10.78278,-65.339439,
3461973,Guanambi,BR,-14.22333,-42.781391,
3461958,Guanhaes,BR,-18.775,-42.932499,
3461949,Guapimirim,BR,-22.53722,-42.981941,
3461941,Guapore,BR,-28.84556,-51.890282,
3461935,Guara,BR,-20.428329,-47.824169,
3398570,Guarabira,BR,-6.85472,-35.490002,
3398569,Guaraciaba do Norte,BR,-4.16694,-40.747501,
3461914,Guaramirim,BR,-26.473061,-49.002781,
3461910,Guaranesia,BR,-21.29917,-46.802502,
3461888,Guarapari,BR,-20.66667,-40.497501,
3461879,Guarapuava,BR,-25.395281,-51.458061,
3461874,Guararapes,BR,-21.26083,-50.64278,
3461871,Guararema,BR,-23.415001,-46.035,
3461859,Guaratingueta,BR,-22.816389,-45.192501,
3461857,Guaratuba,BR,-25.88278,-48.574718,
3461824,Guariba,BR,-21.360001,-48.228329,
3461789,Guaruja,BR,-23.993059,-46.25639,
3461786,Guarulhos,BR,-23.46278,-46.533329,
3461763,Guaxupe,BR,-21.305281,-46.71278,
3461724,Gurupi,BR,-11.72917,-49.068611,
3461680,Herval,BR,-32.023609,-53.395561,
3398450,Horizonte,BR,-4.1,-38.48333,
3461655,Hortolandia,BR,-22.85833,-47.220001,
3664078,Humaita,BR,-7.50611,-63.020828,
3461638,Iacu,BR,-12.76722,-40.21167,
3461628,Ibaiti,BR,-23.84861,-50.187778,
3461625,Ibate,BR,-21.95472,-47.99667,
3461620,Ibia,BR,-19.478331,-46.538891,
3461606,Ibicarai,BR,-14.865,-39.587502,
3461588,Ibipora,BR,-23.269171,-51.048061,
3461576,Ibirama,BR,-27.05694,-49.51778,
3461565,Ibirataia,BR,-14.06694,-39.64056,
3461563,Ibirite,BR,-20.02194,-44.058891,
3461550,Ibitinga,BR,-21.75778,-48.828892,
3461528,Ibiuna,BR,-23.656389,-47.2225,
3461525,Ibotirama,BR,-12.18528,-43.220558,
3461519,Icara,BR,-28.713329,-49.299999,
3398379,Ico,BR,-6.40111,-38.862221,
3461501,Igaracu do Tiete,BR,-22.509171,-48.557781,
3461499,Igarapava,BR,-20.03833,-47.746941,
3461498,Igarape,BR,-20.07028,-44.30167,
3398350,Igarape Acu,BR,-1.12889,-47.619999,
3398343,Igarape Miri,BR,-1.975,-48.959721,
3398352,Igarassu,BR,-7.83417,-34.906391,
3461481,Igrejinha,BR,-29.57444,-50.790279,
3461465,Iguape,BR,-24.708059,-47.555279,
3398331,Iguatu,BR,-6.35944,-39.298611,
3461444,Ijui,BR,-28.387779,-53.914719,
3461411,Ilha Solteira,BR,-20.432779,-51.342499,
3461425,Ilhabela,BR,-23.778061,-45.358059,
3461408,Ilheus,BR,-14.78889,-39.049438,
3461370,Imbituba,BR,-28.24,-48.67028,
3461368,Imbituva,BR,-25.23,-50.604439,
3398269,Imperatriz,BR,-5.52639,-47.491669,
3461316,Indaial,BR,-26.897779,-49.23167,
3461311,Indaiatuba,BR,-23.090281,-47.21806,
3461194,Inhumas,BR,-16.35778,-49.496109,
3461153,Ipaba,BR,-19.41361,-42.419441,
3461151,Ipameri,BR,-17.721939,-48.159721,
3461144,Ipatinga,BR,-19.46833,-42.536671,
3461134,Ipero,BR,-23.350281,-47.68861,
3461129,Ipiau,BR,-14.13722,-39.733891,
3461124,Ipira,BR,-12.15833,-39.737221,
3398115,Ipojuca,BR,-8.39889,-35.063889,
3461090,Ipora,BR,-16.44194,-51.117779,
3398112,Ipu,BR,-4.32222,-40.710831,
3398105,Ipubi,BR,-7.65194,-40.148891,
3398076,Ipueiras,BR,-7.03333,-40.450001,
3461055,Iracemapolis,BR,-22.580561,-47.518608,
3461017,Irati,BR,-25.46722,-50.651112,
3461013,Irece,BR,-11.30417,-41.855831,
3398003,Itabaiana,BR,-7.32861,-35.3325,
3460974,Itabaiana,BR,-10.685,-37.425282,
3460971,Itabaianinha,BR,-11.27389,-37.790001,
3460966,Itaberaba,BR,-12.5275,-40.306938,
3460963,Itaberai,BR,-16.020281,-49.81028,
3460960,Itabira,BR,-19.619169,-43.22694,
3460954,Itabirito,BR,-20.25333,-43.801392,
3460950,Itaborai,BR,-22.74444,-42.85944,
3460949,Itabuna,BR,-14.78556,-39.280281,
3397893,Itacoatiara,BR,-3.14306,-58.444172,
3460899,Itaguai,BR,-22.852221,-43.77528,
3460887,Itai,BR,-23.41778,-49.090561,
3397969,Itaitinga,BR,-3.96944,-38.528061,
3397967,Itaituba,BR,-4.27611,-55.983608,
3460845,Itajai,BR,-26.90778,-48.661942,
3460834,Itajuba,BR,-22.42556,-45.452782,
3460831,Itajuipe,BR,-14.67806,-39.375,
3460826,Itamaraju,BR,-17.039169,-39.531109,
3460825,Itamarandiba,BR,-17.85722,-42.858891,
3460813,Itambe,BR,-15.245,-40.624439,
3460791,Itanhaem,BR,-24.18306,-46.788891,
3460774,Itaocara,BR,-21.66917,-42.076111,
3460773,Itapaci,BR,-14.95083,-49.549438,
3397941,Itapage,BR,-3.68667,-39.586109,
3460764,Itaparica,BR,-12.88833,-38.678612,
3460752,Itapecerica,BR,-20.4725,-45.125561,
3460748,Itapecerica da Serra,BR,-23.71694,-46.849171,
3397936,Itapecuru Mirim,BR,-3.3925,-44.358608,
3460740,Itapema,BR,-27.090281,-48.611389,
3460738,Itapemirim,BR,-21.01111,-40.833889,
3460734,Itaperucu,BR,-25.219999,-49.347778,
3460733,Itaperuna,BR,-21.205,-41.887779,
3460730,Itapetinga,BR,-15.24889,-40.24778,
3460728,Itapetininga,BR,-23.591669,-48.053059,
3460723,Itapeva,BR,-23.98222,-48.875561,
3460718,Itapevi,BR,-23.548889,-46.93417,
3397909,Itapipoca,BR,-3.49444,-39.578609,
3460699,Itapira,BR,-22.43611,-46.821671,
3397904,Itapissuma,BR,-7.77639,-34.89222,
3460671,Itapolis,BR,-21.59556,-48.812778,
3397898,Itaporanga,BR,-7.30444,-38.15028,
3460648,Itapuranga,BR,-15.56222,-49.948608,
3460644,Itaquaquecetuba,BR,-23.486111,-46.348331,
3460629,Itaqui,BR,-29.12528,-56.553059,
3460620,Itarare,BR,-24.112499,-49.331669,
3460598,Itatiba,BR,-23.005831,-46.83889,
3460594,Itatinga,BR,-23.101669,-48.615829,
3460584,Itauna,BR,-20.075279,-44.576389,
3460542,Itororo,BR,-15.11694,-40.070278,
3460535,Itu,BR,-23.26417,-47.299171,
3460530,Itubera,BR,-13.73222,-39.14917,
3460523,Ituiutaba,BR,-18.968889,-49.465,
3460522,Itumbiara,BR,-18.41917,-49.215279,
3460516,Itupeva,BR,-23.153061,-47.057781,
3397851,Itupiranga,BR,-5.13472,-49.326672,
3460513,Iturama,BR,-19.72806,-50.19556,
3460511,Ituverava,BR,-20.339439,-47.78056,
3460484,Ivoti,BR,-29.59111,-51.160561,
3397838,Jaboatao,BR,-8.18028,-35.001389,
6317344,Jaboatao dos Guararapes,BR,-8.11278,-35.014721,
3460441,Jaboticabal,BR,-21.254721,-48.32222,
3460370,Jacarei,BR,-23.305281,-45.965832,
3460362,Jacarezinho,BR,-23.160561,-49.96944,
3460355,Jaciara,BR,-15.96528,-54.96833,
3460344,Jacobina,BR,-11.18056,-40.51833,
3460267,Jacutinga,BR,-22.285561,-46.612221,
3460242,Jaguaquara,BR,-13.53056,-39.970829,
3460232,Jaguarao,BR,-32.566109,-53.375832,
3460225,Jaguarari,BR,-10.26389,-40.195831,
3460214,Jaguariaiva,BR,-24.25111,-49.70583,
3397675,Jaguaribe,BR,-5.89056,-38.621941,
3460200,Jaguariuna,BR,-22.705561,-46.985828,
3397665,Jaguaruana,BR,-4.83389,-37.781109,
3460186,Jales,BR,-20.26889,-50.54583,
3460174,Janauba,BR,-15.8025,-43.308891,
3460172,Jandaia do Sul,BR,-23.60306,-51.64333,
3460170,Jandira,BR,-23.5275,-46.9025,
3460148,Januaria,BR,-15.48333,-44.366669,
3460132,Japeri,BR,-22.643061,-43.653332,
3460107,Jaragua,BR,-15.75694,-49.334438,
3460102,Jaragua do Sul,BR,-26.486111,-49.066669,
3460087,Jardim,BR,-21.48028,-56.138062,
3460071,Jardinopolis,BR,-21.01778,-47.763889,
3460068,Jarinu,BR,-23.101391,-46.728329,
3925040,Jaru,BR,-10.43889,-62.466389,
3460064,Jatai,BR,-17.88139,-51.714439,
3392243,Jatoba,BR,-9.18306,-38.26889,
3460005,Jau,BR,-22.296391,-48.557781,
3459943,Jequie,BR,-13.8575,-40.083611,
3459925,Jequitinhonha,BR,-16.433889,-41.00333,
3459922,Jeremoabo,BR,-10.075,-38.480831,
3459869,Joacaba,BR,-27.178061,-51.504719,
3397315,Joao Camara,BR,-5.5375,-35.819721,
3459796,Joao Monlevade,BR,-19.809999,-43.173611,
3397277,Joao Pessoa,BR,-7.115,-34.86306,
3459785,Joao Pinheiro,BR,-17.7425,-46.172501,
3459712,Joinville,BR,-26.30444,-48.845558,
3459667,Jose Bonifacio,BR,-21.05278,-49.688332,
3397230,Jose de Freitas,BR,-4.75639,-42.575562,
3459550,Juatuba,BR,-19.951941,-44.342781,
3397147,Juazeiro do Norte,BR,-7.21306,-39.315281,
3459505,Juiz de Fora,BR,-21.76417,-43.350281,
3459495,Julio de Castilhos,BR,-29.22694,-53.681671,
3459462,Jundiai,BR,-23.18639,-46.884171,
3459352,Ladario,BR,-19.004721,-57.601669,
3459342,Lagarto,BR,-10.91722,-37.650002,
3458930,Lages,BR,-27.816111,-50.326111,
3396601,Lago da Pedra,BR,-4.33333,-45.166672,
3459251,Lagoa da Prata,BR,-20.022499,-45.54361,
3396769,Lagoa do Itaenga,BR,-7.93611,-35.290279,
3459138,Lagoa Santa,BR,-19.62722,-43.889721,
3459126,Lagoa Vermelha,BR,-28.208611,-51.525829,
3459094,Laguna,BR,-28.4825,-48.78083,
3459035,Lajeado,BR,-29.46694,-51.961391,
3396496,Lajedo,BR,-8.66361,-36.32,
3458902,Lajinha,BR,-20.15139,-41.62278,
3458826,Lapa,BR,-25.76972,-49.715832,
3458786,Laranjal Paulista,BR,-23.049721,-47.83667,
3458778,Laranjeiras,BR,-10.80639,-37.169998,
3458746,Laranjeiras do Sul,BR,-25.40778,-52.416111,
6317464,Lauro de Freitas,BR,-12.89444,-38.327221,
3458696,Lavras,BR,-21.245279,-44.999722,
3396364,Lavras da Mangabeira,BR,-6.75333,-38.964439,
3458662,Leme,BR,-22.18556,-47.390282,
3458645,Lencois Paulista,BR,-22.59861,-48.800282,
3458632,Leopoldina,BR,-21.53194,-42.643059,
3458575,Limeira,BR,-22.56472,-47.401669,
3396277,Limoeiro,BR,-7.87472,-35.450279,
3396266,Limoeiro do Norte,BR,-5.14556,-38.098061,
3458498,Linhares,BR,-19.391109,-40.07222,
3458494,Lins,BR,-21.67861,-49.7425,
3458481,Livramento do Brumado,BR,-13.64306,-41.840561,
3458479,Loanda,BR,-22.923059,-53.137218,
3458449,Londrina,BR,-23.31028,-51.162781,
3458425,Lorena,BR,-22.730829,-45.124722,
3458406,Louveira,BR,-23.08639,-46.950562,
3458397,Lucas,BR,-16.33333,-55.933331,
3458329,Luziania,BR,-16.252501,-47.950279,
3458266,Macae,BR,-22.370831,-41.786942,
3396048,Macaiba,BR,-5.85833,-35.353889,
3396016,Macapa,BR,0.03889,-51.066391,
3458245,Macatuba,BR,-22.50222,-48.711391,
3395998,Macau,BR,-5.115,-36.634441,
3395981,Maceio,BR,-9.66583,-35.735279,
3458211,Machado,BR,-21.674721,-45.91972,
3458147,Mafra,BR,-26.111389,-49.805279,
3458132,Mairinque,BR,-23.54583,-47.183331,
3458131,Mairipora,BR,-23.318609,-46.58667,
3395717,Mamanguape,BR,-6.83861,-35.12611,
3663529,Manacapuru,BR,-3.29972,-60.62056,
3663517,Manaus,BR,-3.10194,-60.025002,
3458049,Mandaguari,BR,-23.547501,-51.67083,
3457991,Mangaratiba,BR,-22.959721,-44.040562,
3457952,Manhuacu,BR,-20.25806,-42.033611,
3457950,Manhumirim,BR,-20.35778,-41.958061,
3395503,Maraba,BR,-5.36861,-49.117779,
3457859,Maracaju,BR,-21.614441,-55.168331,
3395473,Maracanau,BR,-3.87667,-38.625561,
3457854,Maracas,BR,-13.44111,-40.430828,
3395458,Maragogi,BR,-9.01222,-35.2225,
3457850,Maragogipe,BR,-12.77778,-38.919441,
3457819,Marataizes,BR,-21.043329,-40.82444,
3457817,Marau,BR,-28.449169,-52.200001,
3457772,Marechal Candido Rondon,BR,-24.55611,-54.056671,
3395395,Marechal Deodoro,BR,-9.71028,-35.895,
3395380,Mari,BR,-7.06,-35.319439,
3457741,Marialva,BR,-23.485001,-51.791672,
3457736,Mariana,BR,-20.377781,-43.416111,
3457708,Marica,BR,-22.919439,-42.818611,
3457692,Marilia,BR,-22.21389,-49.945831,
3457671,Maringa,BR,-23.42528,-51.93861,
3457595,Martinopolis,BR,-22.14583,-51.17083,
3457566,Mascote,BR,-15.56306,-39.302502,
3457528,Mata de Sao Joao,BR,-12.53028,-38.299171,
3457509,Matao,BR,-21.603331,-48.365829,
3457484,Mateus Leme,BR,-19.986389,-44.42778,
3457393,Matozinhos,BR,-19.557779,-44.08139,
3395077,Matriz de Camaragibe,BR,-9.15167,-35.533329,
3457381,Maua,BR,-23.66778,-46.461391,
3395062,Maues,BR,-3.38361,-57.718609,
3457360,Medeiros Neto,BR,-17.37389,-40.220558,
3457359,Medianeira,BR,-25.29528,-54.093891,
3457247,Mendes,BR,-22.52667,-43.73278,
3457191,Miguel Pereira,BR,-22.45389,-43.468891,
3457192,Miguelopolis,BR,-20.17944,-48.03194,
3457147,Mineiros,BR,-17.569441,-52.551109,
3457133,Miracema,BR,-21.41222,-42.196671,
3457107,Mirandopolis,BR,-21.13361,-51.101669,
3394745,Mocajuba,BR,-2.58417,-49.507221,
3457025,Mococa,BR,-21.467779,-47.004719,
3457001,Mogi das Cruzes,BR,-23.522779,-46.188332,
3457000,Mogi Guacu,BR,-22.372219,-46.942219,
3456998,Mogi Mirim,BR,-22.43194,-46.957779,
3394661,Moju,BR,-1.88389,-48.76889,
3394649,Mombaca,BR,-5.74306,-39.627499,
3456944,Mongagua,BR,-24.09306,-46.620831,
3394605,Monte Alegre,BR,-2.00778,-54.069172,
3456873,Monte Alto,BR,-21.26111,-48.496391,
3456866,Monte Aprazivel,BR,-20.772499,-49.714169,
3456863,Monte Azul Paulista,BR,-20.907221,-48.641392,
3456848,Monte Carmelo,BR,-18.72472,-47.498611,
3456827,Monte Mor,BR,-22.946671,-47.31583,
3456816,Monte Santo de Minas,BR,-21.18972,-46.980282,
3394549,Monteiro,BR,-7.88944,-37.119999,
3456814,Montes Claros,BR,-16.735001,-43.861671,
3394500,Morada Nova,BR,-5.10667,-38.372501,
3394453,Moreno,BR,-8.11861,-35.09222,
3456735,Morrinhos,BR,-17.73111,-49.099442,
3456724,Morro Agudo,BR,-20.73139,-48.057781,
3456696,Morro do Chapeu,BR,-11.55,-41.156109,
3394682,Mossoro,BR,-5.1875,-37.34417,
3456593,Mucuri,BR,-18.08639,-39.550831,
3456500,Muriae,BR,-21.13056,-42.36639,
3394116,Murici,BR,-9.30667,-35.943329,
3456483,Muritiba,BR,-12.91667,-39.25,
3456412,Muzambinho,BR,-21.37583,-46.525558,
3456398,Nanuque,BR,-17.83917,-40.353889,
3394023,Natal,BR,-5.795,-35.209438,
3456370,Navegantes,BR,-26.89889,-48.654171,
3456368,Navirai,BR,-23.065001,-54.190559,
3456366,Nazare,BR,-13.035,-39.014439,
3393972,Nazare da Mata,BR,-7.74167,-35.227779,
3456324,Nepomuceno,BR,-21.23583,-45.235828,
3456322,Neropolis,BR,-16.406389,-49.218609,
3456290,Nilopolis,BR,-22.807501,-43.413891,
3456285,Niquelandia,BR,-14.47389,-48.459721,
3456283,Niteroi,BR,-22.883329,-43.103611,
3456240,Nossa Senhora da Gloria,BR,-10.21833,-37.42028,
3456223,Nossa Senhora do Socorro,BR,-10.855,-37.12611,
3393876,Nova Cruz,BR,-6.47806,-35.433891,
3456176,Nova Era,BR,-19.75,-43.037498,
3456166,Nova Friburgo,BR,-22.28194,-42.531109,
3456164,Nova Granada,BR,-20.53389,-49.314171,
3456160,Nova Iguacu,BR,-22.759171,-43.451111,
3456147,Nova Lima,BR,-19.985559,-43.846668,
3456138,Nova Odessa,BR,-22.7775,-47.29583,
3456137,Nova Olimpia,BR,-14.79722,-57.288059,
3456127,Nova Petropolis,BR,-29.37639,-51.114441,
3456125,Nova Prata,BR,-28.78389,-51.610001,
3393832,Nova Russas,BR,-4.70667,-40.563061,
3456110,Nova Venecia,BR,-18.71056,-40.400558,
3456102,Nova Vicosa,BR,-17.891939,-39.371941,
3456068,Novo Hamburgo,BR,-29.678329,-51.130562,
3456060,Novo Horizonte,BR,-21.46806,-49.220829,
3393764,Oeiras,BR,-7.02528,-42.131111,
3455923,Olimpia,BR,-20.737221,-48.914719,
3393536,Olinda,BR,-8.00889,-34.855282,
3455908,Oliveira,BR,-20.69639,-44.827221,
3393471,Oriximina,BR,-1.76556,-55.866112,
3455785,Orlandia,BR,-20.72028,-47.886669,
3455784,Orleans,BR,-28.358891,-49.291389,
3393465,Oros,BR,-6.24444,-38.913609,
3455775,Osasco,BR,-23.532499,-46.791672,
3455769,Osorio,BR,-29.886669,-50.269718,
3455756,Osvaldo Cruz,BR,-21.796671,-50.878609,
3393452,Ouricuri,BR,-7.8825,-40.081669,
3455729,Ourinhos,BR,-22.978889,-49.87056,
3455689,Ouro Branco,BR,-20.52083,-43.69194,
3455671,Ouro Preto,BR,-20.39484,-43.505169,
3924948,Ouro Preto do Oeste,BR,-10.74806,-62.215832,
3393409,Pacajus,BR,-4.1725,-38.46056,
3393400,Pacatuba,BR,-3.98417,-38.620281,
3455580,Padre Bernardo,BR,-15.35,-48.5,
3455553,Paicandu,BR,-23.4575,-52.048611,
3455478,Palhoca,BR,-27.645281,-48.667782,
3393264,Palmares,BR,-8.68333,-35.591671,
3455459,Palmas,BR,-26.484171,-51.990559,
3474574,Palmas,BR,-10.21278,-48.360279,
3455425,Palmeira,BR,-25.42944,-50.00639,
3455416,Palmeira das Missoes,BR,-27.899441,-53.31361,
3455342,Palmital,BR,-22.788891,-50.217499,
3455298,Palotina,BR,-24.28389,-53.84,
3455281,Panambi,BR,-28.2925,-53.501671,
3455161,Para de Minas,BR,-19.860279,-44.60833,
3455170,Paracambi,BR,-22.60861,-43.71278,
3455168,Paracatu,BR,-17.222219,-46.874722,
3393115,Paracuru,BR,-3.41,-39.03056,
3393106,Paragominas,BR,-2.96667,-47.48333,
3455155,Paraguacu,BR,-21.54722,-45.737499,
3455152,Paraguacu Paulista,BR,-22.412781,-50.575829,
3455141,Paraiba do Sul,BR,-22.16194,-43.292782,
3393091,Paraipaba,BR,-3.43944,-39.148331,
3455070,Paranagua,BR,-25.52,-48.509171,
3455065,Paranaiba,BR,-19.677219,-51.19083,
3455061,Paranapanema,BR,-23.388611,-48.722778,
3455051,Paranavai,BR,-23.073059,-52.465279,
3455036,Parati,BR,-23.217779,-44.713058,
3393017,Parelhas,BR,-6.68778,-36.657501,
3393008,Parintins,BR,-2.62833,-56.735828,
3393001,Parnaiba,BR,-2.90472,-41.776669,
3392998,Parnamirim,BR,-5.91556,-35.262779,
3454954,Parobe,BR,-29.628611,-50.834721,
3454857,Passo Fundo,BR,-28.262779,-52.40667,
3454847,Passos,BR,-20.718889,-46.609718,
3454818,Pato Branco,BR,-26.228609,-52.670559,
3392887,Patos,BR,-7.02444,-37.279999,
3454783,Patos de Minas,BR,-18.57889,-46.518059,
3454763,Patrocinio,BR,-18.94389,-46.9925,
3454827,Paty do Alferes,BR,-22.42861,-43.41861,
3454690,Paulinia,BR,-22.76111,-47.154171,
3392740,Paulista,BR,-7.94083,-34.873058,
3392734,Paulo Afonso,BR,-9.40611,-38.214722,
3454620,Pederneiras,BR,-22.351669,-48.775002,
3454578,Pedra Azul,BR,-16.00528,-41.297218,
3392629,Pedra Branca,BR,-5.45417,-39.71722,
3454407,Pedreira,BR,-22.74194,-46.90139,
3392431,Pedro II,BR,-4.42472,-41.458611,
3454358,Pedro Leopoldo,BR,-19.618059,-44.04306,
3454244,Pelotas,BR,-31.77194,-52.342499,
3392368,Penalva,BR,-3.29417,-45.173611,
3454235,Penapolis,BR,-21.41972,-50.077499,
3454231,Penedo,BR,-10.29028,-36.586391,
3454213,Penha,BR,-26.76944,-48.645828,
3392345,Pentecoste,BR,-3.79278,-39.270279,
3454139,Perdoes,BR,-21.09083,-45.091389,
3454131,Pereira Barreto,BR,-20.63833,-51.109169,
3454061,Peruibe,BR,-24.32,-46.998329,
3392251,Pesqueira,BR,-8.35778,-36.696388,
3392242,Petrolina,BR,-9.39861,-40.500832,
3454031,Petropolis,BR,-22.504999,-43.178612,
3392167,Picos,BR,-7.07694,-41.466942,
3453926,Piedade,BR,-23.711941,-47.42778,
3392126,Pilar,BR,-9.59722,-35.956669,
3453896,Pilar do Sul,BR,-23.813061,-47.716389,
3924908,Pimenta Bueno,BR,-11.6725,-61.193611,
3453837,Pindamonhangaba,BR,-22.923889,-45.46167,
3392088,Pindare Mirim,BR,-3.60833,-45.34333,
3453827,Pindobacu,BR,-10.74167,-40.360828,
6317953,Pinhais,BR,-25.444719,-49.192501,
3453777,Pinhao,BR,-25.69556,-51.659721,
3453767,Pinheiral,BR,-22.512779,-44.000561,
3392054,Pinheiro,BR,-2.52139,-45.0825,
3453661,Piracaia,BR,-23.05389,-46.358059,
3453659,Piracanjuba,BR,-17.30278,-49.01667,
3453643,Piracicaba,BR,-22.725281,-47.64917,
3391991,Piracuruca,BR,-3.92806,-41.709171,
3453635,Pirai,BR,-22.629169,-43.89806,
3453622,Pirai do Sul,BR,-24.52611,-49.948608,
3453610,Piraju,BR,-23.193609,-49.383888,
3453605,Pirajui,BR,-21.99861,-49.457218,
3453546,Pirapora,BR,-17.344999,-44.94194,
3453542,Pirapozinho,BR,-22.27528,-51.5,
3453535,Piraquara,BR,-25.441669,-49.063332,
3453639,Pirassununga,BR,-21.996111,-47.425831,
3453503,Pires do Rio,BR,-17.299721,-48.279442,
3391908,Piripiri,BR,-4.27333,-41.776939,
3453494,Piritiba,BR,-11.73028,-40.555279,
3453478,Pitanga,BR,-24.757219,-51.761391,
3453467,Pitangueiras,BR,-21.009439,-48.221668,
3453457,Pitangui,BR,-19.682779,-44.890282,
3453439,Piui,BR,-20.465281,-45.958061,
3453435,Piuma,BR,-20.83778,-40.721939,
3453420,Planaltina,BR,-15.45278,-47.61417,
3453406,Poa,BR,-23.528061,-46.344719,
3453337,Pocoes,BR,-14.52972,-40.36528,
3453315,Pocone,BR,-16.25667,-56.62278,
3453303,Pocos de Caldas,BR,-21.787781,-46.56139,
3391571,Pombal,BR,-6.77028,-37.80167,
3391556,Pombos,BR,-8.14139,-35.395828,
3453245,Pomerode,BR,-26.740561,-49.176941,
3453242,Pompeia,BR,-22.10861,-50.171669,
3453240,Pompeu,BR,-19.22444,-44.93528,
3453186,Ponta Grossa,BR,-25.094999,-50.161942,
3453150,Ponta Pora,BR,-22.53611,-55.725559,
3453171,Pontal,BR,-21.022499,-48.03722,
3453078,Ponte Nova,BR,-20.416389,-42.908611,
3453060,Pontes e Lacerda,BR,-15.22611,-59.335281,
3453014,Porangatu,BR,-13.44083,-49.148609,
3452982,Portao,BR,-29.70167,-51.24194,
3391412,Portel,BR,-1.93556,-50.82111,
3452925,Porto Alegre,BR,-30.03306,-51.23,
3391397,Porto Calvo,BR,-9.045,-35.398331,
3452779,Porto Feliz,BR,-23.21472,-47.523891,
3452775,Porto Ferreira,BR,-21.853889,-47.479172,
3452640,Porto Seguro,BR,-16.44972,-39.06472,
3452623,Porto Uniao,BR,-26.23806,-51.078331,
3662762,Porto Velho,BR,-8.76194,-63.903889,
3452599,Posse,BR,-14.09306,-46.369438,
3924877,Posto Fiscal Rolim de Moura,BR,-13.08333,-62.26667,
3452525,Pouso Alegre,BR,-22.23,-45.93639,
3452483,Prado,BR,-17.34111,-39.220829,
3452465,Praia Grande,BR,-24.005831,-46.402779,
3452440,Prata,BR,-19.30722,-48.924171,
3391220,Presidente Dutra,BR,-5.29,-44.490002,
3452331,Presidente Epitacio,BR,-21.76333,-52.115559,
3452324,Presidente Prudente,BR,-22.125561,-51.388889,
3452320,Presidente Venceslau,BR,-21.87611,-51.843891,
3452237,Promissao,BR,-21.536671,-49.858059,
3452233,Propria,BR,-10.21111,-36.840279,
3452216,Prudentopolis,BR,-25.21306,-50.977779,
3452179,Quarai,BR,-30.387501,-56.451389,
3452141,Quatro Barras,BR,-25.365561,-49.076939,
3452073,Queimados,BR,-22.71611,-43.555279,
3451931,Quirinopolis,BR,-18.44833,-50.451672,
3390907,Quixada,BR,-4.97139,-39.015282,
3390901,Quixeramobim,BR,-5.19917,-39.292782,
3451856,Rancharia,BR,-22.22917,-50.893059,
3390760,Recife,BR,-8.05389,-34.881111,
3451709,Regente Feijo,BR,-22.22139,-51.30278,
3451704,Registro,BR,-24.487499,-47.843609,
3451668,Resende,BR,-22.468889,-44.446671,
3451650,Resplendor,BR,-19.32556,-41.25528,
3451474,Riachao do Jacuipe,BR,-11.80694,-39.385559,
3451383,Ribeira do Pombal,BR,-10.83444,-38.535831,
3390326,Ribeirao,BR,-8.51444,-35.377781,
3451357,Ribeirao da Ilha,BR,-27.699341,-48.532188,
3451353,Ribeirao das Neves,BR,-19.766939,-44.08667,
3451329,Ribeirao Pires,BR,-23.71056,-46.41333,
3451328,Ribeirao Preto,BR,-21.1775,-47.81028,
3451261,Rio Bonito,BR,-22.708611,-42.609718,
3662574,Rio Branco,BR,-9.97472,-67.809998,
3451242,Rio Branco do Sul,BR,-25.190001,-49.314171,
3451241,Rio Brilhante,BR,-21.801941,-54.546391,
3451234,Rio Claro,BR,-22.41139,-47.56139,
3451205,Rio das Ostras,BR,-22.526939,-41.945,
3451202,Rio das Pedras,BR,-22.84333,-47.60611,
3451190,Rio de Janeiro,BR,-22.902781,-43.2075,
3451152,Rio do Sul,BR,-27.21417,-49.643059,
3390295,Rio Formoso,BR,-8.66361,-35.158611,
3451138,Rio Grande,BR,-32.035,-52.09861,
3451134,Rio Grande da Serra,BR,-23.744169,-46.398331,
3390288,Rio Largo,BR,-9.47833,-35.853329,
3451124,Rio Negrinho,BR,-26.25444,-49.51833,
3451102,Rio Pardo,BR,-29.989719,-52.378059,
6318165,Rio Preto da Eva,BR,-2.69944,-59.699718,
3451071,Rio Real,BR,-11.48472,-37.932781,
3451051,Rio Verde de Mato Grosso,BR,-18.91806,-54.84417,
3450964,Rolandia,BR,-23.309719,-51.369171,
3450963,Rolante,BR,-29.65056,-50.575829,
3450909,Rondonopolis,BR,-16.470831,-54.635559,
3450873,Rosario do Sul,BR,-30.258329,-54.914169,
3450843,Rubiataba,BR,-15.16444,-49.803329,
3390160,Russas,BR,-4.94028,-37.97583,
3450832,Ruy Barbosa,BR,-12.28389,-40.493889,
3450759,Sacramento,BR,-19.86528,-47.439999,
3389860,Salgueiro,BR,-8.07417,-39.119171,
3450671,Salinas,BR,-16.17028,-42.290279,
3389822,Salinopolis,BR,-0.61361,-47.35611,
3450594,Salto,BR,-23.20083,-47.286942,
3450563,Salto de Pirapora,BR,-23.64889,-47.57333,
3450554,Salvador,BR,-12.97111,-38.51083,
3450404,Santa Barbara dOeste,BR,-22.753611,-47.413609,
3450376,Santa Cecilia,BR,-26.960831,-50.426941,
3389673,Santa Cruz,BR,-6.22944,-36.022781,
3450288,Santa Cruz Cabralia,BR,-16.278061,-39.024719,
3450283,Santa Cruz das Palmeiras,BR,-21.826941,-47.248611,
3389652,Santa Cruz do Capibaribe,BR,-7.9575,-36.20472,
3450272,Santa Cruz do Rio Pardo,BR,-22.89889,-49.6325,
3450269,Santa Cruz do Sul,BR,-29.717501,-52.425831,
3450232,Santa Fe do Sul,BR,-20.211109,-50.925831,
3450225,Santa Gertrudes,BR,-22.456671,-47.530281,
3389622,Santa Helena,BR,-2.23111,-45.299999,
3450206,Santa Helena de Goias,BR,-17.81361,-50.596939,
3389609,Santa Ines,BR,-3.66667,-45.380001,
3450188,Santa Isabel,BR,-23.315559,-46.22139,
3389557,Santa Luzia,BR,-7.63333,-47.200001,
3450144,Santa Luzia,BR,-19.76972,-43.851391,
3450083,Santa Maria,BR,-29.68417,-53.806938,
3450063,Santa Maria da Vitoria,BR,-13.39472,-44.18861,
3389361,Santa Quiteria,BR,-4.33194,-40.15667,
3389358,Santa Quiteria do Maranhao,BR,-3.51556,-42.546669,
3389321,Santa Rita,BR,-7.11389,-34.978062,
3449851,Santa Rita do Passa Quatro,BR,-21.710279,-47.478062,
3449847,Santa Rita do Sapucai,BR,-22.25222,-45.703331,
3449822,Santa Rosa,BR,-27.870831,-54.481392,
3449793,Santa Rosa de Viterbo,BR,-21.47278,-47.36306,
3449747,Santa Vitoria do Palmar,BR,-33.51889,-53.368061,
3450157,Santaluz,BR,-11.25583,-39.374722,
3391360,Santana,BR,-0.05833,-51.181671,
3449948,Santana de Parnaiba,BR,-23.44417,-46.917782,
3389384,Santana do Ipanema,BR,-9.37833,-37.245281,
3449936,Santana do Livramento,BR,-30.890829,-55.53278,
3449933,Santana do Paraiso,BR,-19.363609,-42.568611,
3389353,Santarem,BR,-2.44306,-54.708328,
3449741,Santiago,BR,-29.191669,-54.867222,
3449720,Santo Amaro,BR,-12.54667,-38.711941,
3449711,Santo Amaro da Imperatriz,BR,-27.688061,-48.77861,
3449707,Santo Anastacio,BR,-21.838329,-51.610279,
3449701,Santo Andre,BR,-23.663891,-46.53833,
3449696,Santo Angelo,BR,-28.29917,-54.263062,
3449529,Santo Antonio da Platina,BR,-23.295,-50.077221,
3449521,Santo Antonio de Jesus,BR,-12.96889,-39.261391,
3449519,Santo Antonio de Padua,BR,-21.53944,-42.180279,
3449518,Santo Antonio de Posse,BR,-22.60611,-46.919441,
3449516,Santo Antonio do Amparo,BR,-20.94639,-44.918892,
3449500,Santo Antonio do Monte,BR,-20.087219,-45.29361,
3449467,Santo Estevao,BR,-12.43028,-39.251389,
3449433,Santos,BR,-23.960831,-46.333611,
3449427,Santos Dumont,BR,-21.456671,-43.552502,
3388991,Sao Bento,BR,-6.28333,-37.75,
3389006,Sao Bento,BR,-2.69583,-44.821388,
3449350,Sao Bento do Sul,BR,-26.25028,-49.378609,
3449344,Sao Bernardo do Campo,BR,-23.69389,-46.564999,
3449340,Sao Borja,BR,-28.660561,-56.00444,
3449324,Sao Caetano do Sul,BR,-23.62306,-46.551109,
3449319,Sao Carlos,BR,-22.0175,-47.890831,
3449310,Sao Cristovao,BR,-11.01472,-37.20639,
3388868,Sao Domingos do Maranhao,BR,-5.57583,-44.385281,
3388847,Sao Felix do Xingu,BR,-6.64472,-51.994999,
3449195,Sao Fidelis,BR,-21.646111,-41.746941,
3449176,Sao Francisco,BR,-15.94861,-44.864441,
3449116,Sao Francisco do Conde,BR,-12.6275,-38.68,
3449112,Sao Francisco do Sul,BR,-26.24333,-48.638062,
3449099,Sao Gabriel,BR,-30.33639,-54.32,
3662342,Sao Gabriel da Cachoeira,BR,-0.13028,-67.089172,
3388714,Sao Goncalo do Amarante,BR,-3.60722,-38.96833,
3449056,Sao Goncalo do Sapucai,BR,-21.89222,-45.59528,
3449053,Sao Gotardo,BR,-19.31111,-46.048889,
3449045,Sao Jeronimo,BR,-29.959169,-51.722221,
3448903,Sao Joao da Barra,BR,-21.64028,-41.051109,
3448902,Sao Joao da Boa Vista,BR,-21.96917,-46.798061,
3448877,Sao Joao de Meriti,BR,-22.80389,-43.372219,
3448879,Sao Joao del Rei,BR,-21.135559,-44.261669,
3386567,Sao Joao dos Inhamuns,BR,-6,-40.283329,
3388615,Sao Joao dos Patos,BR,-6.495,-43.702221,
3448846,Sao Joao Nepomuceno,BR,-21.540001,-43.010559,
3448828,Sao Joaquim,BR,-28.29389,-49.931671,
3448825,Sao Joaquim da Barra,BR,-20.58139,-47.854721,
3448742,Sao Jose,BR,-28.23333,-49.166672,
3388443,Sao Jose de Mipibu,BR,-6.07472,-35.237782,
3388441,Sao Jose de Ribamar,BR,-2.56194,-44.054169,
3388435,Sao Jose do Egito,BR,-7.47889,-37.274441,
3448640,Sao Jose do Rio Pardo,BR,-21.59556,-46.888611,
3448639,Sao Jose do Rio Preto,BR,-20.819719,-49.37944,
3448636,Sao Jose dos Campos,BR,-23.17944,-45.88694,
3448632,Sao Jose dos Pinhais,BR,-25.534719,-49.20639,
3448622,Sao Leopoldo,BR,-29.760281,-51.147221,
3448616,Sao Lourenco,BR,-22.11639,-45.05444,
3388376,Sao Lourenco da Mata,BR,-8.00222,-35.01833,
3448596,Sao Lourenco do Sul,BR,-31.36528,-51.978329,
3388368,Sao Luis,BR,-2.52972,-44.30278,
3448558,Sao Luis de Montes Belos,BR,-16.525,-50.372219,
3388341,Sao Luis do Quitunde,BR,-9.31833,-35.561111,
3448552,Sao Luiz Gonzaga,BR,-28.408331,-54.960831,
3448545,Sao Manuel,BR,-22.73111,-48.57056,
3448533,Sao Marcos,BR,-28.971109,-51.068062,
3448519,Sao Mateus,BR,-18.71611,-39.858891,
3388318,Sao Mateus do Maranhao,BR,-4.04167,-44.474998,
3448502,Sao Mateus do Sul,BR,-25.87417,-50.382778,
3448455,Sao Miguel do Araguaia,BR,-13.275,-50.162781,
3388270,Sao Miguel do Guama,BR,-1.62667,-47.48333,
3448453,Sao Miguel do Iguacu,BR,-25.348061,-54.237782,
3388269,Sao Miguel dos Campos,BR,-9.78111,-36.093609,
3448439,Sao Paulo,BR,-23.547501,-46.636108,
3448403,Sao Pedro,BR,-22.548611,-47.913891,
3448351,Sao Pedro da Aldeia,BR,-22.83917,-42.102779,
3388145,Sao Raimundo Nonato,BR,-9.01528,-42.69944,
3448300,Sao Roque,BR,-23.529169,-47.135281,
3448257,Sao Sebastiao,BR,-23.76,-45.409721,
3448227,Sao Sebastiao do Cai,BR,-29.58667,-51.375561,
3448221,Sao Sebastiao do Paraiso,BR,-20.916941,-46.99139,
3448219,Sao Sebastiao do Passe,BR,-12.5125,-38.495281,
3448207,Sao Sepe,BR,-30.160561,-53.565281,
3448136,Sao Vicente,BR,-23.96306,-46.391941,
3448063,Sapiranga,BR,-29.63806,-51.006939,
3448031,Sapucaia,BR,-29.83333,-51.150002,
3448011,Saquarema,BR,-22.92,-42.510281,
3447997,Sarandi,BR,-27.94389,-52.923061,
3447998,Sarandi,BR,-23.443609,-51.87389,
3447969,Sarzedo,BR,-20.03528,-44.144718,
3387987,Satuba,BR,-9.56333,-35.82444,
3447961,Saubara,BR,-12.7375,-38.768608,
3447929,Schroeder,BR,-26.4125,-49.073059,
3447928,Seabra,BR,-12.41861,-41.770279,
3662155,Sena Madureira,BR,-9.06556,-68.656937,
3447854,Senador Canedo,BR,-16.708059,-49.09306,
3387926,Senador Pompeu,BR,-5.58806,-39.37167,
3447839,Senhor do Bonfim,BR,-10.46139,-40.189442,
3447785,Seropedica,BR,-22.743891,-43.7075,
3447779,Serra,BR,-20.128611,-40.307781,
3447718,Serra Negra,BR,-22.612221,-46.700562,
3387786,Serra Talhada,BR,-7.99194,-38.298328,
3447720,Serrana,BR,-21.21139,-47.595558,
3447690,Serrinha,BR,-11.66417,-39.0075,
3387663,Sertania,BR,-8.07361,-37.264439,
3447651,Sertaozinho,BR,-21.137779,-47.99028,
3447624,Sete Lagoas,BR,-19.46583,-44.24667,
3447597,Sidrolandia,BR,-20.93194,-54.961391,
3447591,Silva Jardim,BR,-22.650829,-42.39167,
3447562,Simao Dias,BR,-10.73833,-37.811111,
6318694,Simoes Filho,BR,-12.78444,-38.403889,
3387604,Sirinhaem,BR,-8.59083,-35.116112,
3447473,Sobradinho,BR,-12.83333,-39.099998,
3387296,Sobral,BR,-3.68611,-40.34972,
3447437,Socorro,BR,-22.591391,-46.528889,
3387266,Solanea,BR,-6.755,-35.540001,
3447423,Soledade,BR,-28.818331,-52.510281,
3447399,Sorocaba,BR,-23.501671,-47.458061,
3387204,Soure,BR,-0.71667,-48.523331,
3387202,Sousa,BR,-6.75917,-38.228062,
3447259,Sumare,BR,-22.821939,-47.266941,
3387115,Surubim,BR,-7.83306,-35.754719,
3447212,Suzano,BR,-23.5425,-46.310829,
3662075,Tabatinga,BR,-4.2525,-69.938057,
3387082,Tabira,BR,-7.59083,-37.53944,
3447186,Taboao da Serra,BR,-23.62611,-46.791672,
3447059,Taiobeiras,BR,-15.80778,-42.233059,
3386931,Tamandare,BR,-8.75972,-35.104721,
3447005,Tambau,BR,-21.705,-47.274441,
3446979,Tanabi,BR,-20.62639,-49.64917,
3446974,Tangua,BR,-22.73028,-42.714169,
3446880,Tapes,BR,-30.67333,-51.395828,
3446866,Tapiramuta,BR,-11.84722,-40.791389,
3446847,Taquara,BR,-29.65056,-50.78056,
3446783,Taquari,BR,-29.799721,-51.864441,
3446753,Taquaritinga,BR,-21.406111,-48.504719,
3446752,Taquarituba,BR,-23.53306,-49.244438,
3661980,Tarauaca,BR,-8.16139,-70.765556,
3446692,Tatui,BR,-23.35556,-47.856941,
3446682,Taubate,BR,-23.02639,-45.555279,
3661944,Tefe,BR,-3.35417,-64.711388,
3446652,Telemaco Borba,BR,-24.323891,-50.615559,
3446625,Teodoro Sampaio,BR,-22.532499,-52.1675,
3446621,Teofilo Otoni,BR,-17.8575,-41.50528,
3386496,Teresina,BR,-5.08917,-42.801941,
3446606,Teresopolis,BR,-22.41222,-42.965561,
3446556,Teutonia,BR,-29.448059,-51.806389,
3386449,Tiangua,BR,-3.73222,-40.991669,
3446539,Tiete,BR,-23.10194,-47.714722,
3446500,Tijucas,BR,-27.24139,-48.63361,
3386396,Timbauba,BR,-7.50528,-35.318329,
3386372,Timbiras,BR,-4.25528,-43.940559,
3446465,Timbo,BR,-26.82333,-49.271671,
3386361,Timon,BR,-5.09417,-42.83667,
3446445,Timoteo,BR,-19.5825,-42.64444,
3446400,Tobias Barreto,BR,-11.18389,-37.998329,
3446370,Toledo,BR,-24.71361,-53.743061,
3386279,Tome Acu,BR,-2.41889,-48.152222,
3386264,Toritama,BR,-8.00667,-36.056671,
3446295,Torres,BR,-29.335279,-49.72694,
3386177,Trairi,BR,-3.27778,-39.26889,
3446232,Tramandai,BR,-29.98472,-50.13361,
3446194,Tremembe,BR,-22.95833,-45.549438,
3446138,Tres Coracoes,BR,-21.696939,-45.25333,
3446137,Tres Coroas,BR,-29.516939,-50.777779,
3446130,Tres de Maio,BR,-27.773331,-54.240002,
3446098,Tres Lagoas,BR,-20.75111,-51.678329,
3446087,Tres Passos,BR,-27.455561,-53.931938,
3446077,Tres Pontas,BR,-21.366671,-45.512501,
3446065,Tres Rios,BR,-22.116671,-43.209171,
3386042,Trindade,BR,-7.76194,-40.26778,
3446038,Trindade,BR,-16.649441,-49.488892,
3445993,Tubarao,BR,-28.466669,-49.006939,
3445983,Tucano,BR,-10.96306,-38.786671,
3385980,Tucuma,BR,-0.18333,-50.049999,
3385935,Tucurui,BR,-3.76611,-49.672501,
3385922,Tuntum,BR,-5.25806,-44.648891,
3445942,Tupa,BR,-21.934719,-50.513611,
3445941,Tupaciguara,BR,-18.59222,-48.705002,
3445939,Tupancireta,BR,-29.080561,-53.835831,
3445859,Uba,BR,-21.120001,-42.94278,
3445853,Ubaitaba,BR,-14.3125,-39.32333,
3445849,Ubata,BR,-14.21389,-39.522781,
3445847,Ubatuba,BR,-23.433889,-45.07111,
3445839,Uberaba,BR,-19.748329,-47.931938,
3445831,Uberlandia,BR,-18.91861,-48.277222,
3445782,Umuarama,BR,-23.76639,-53.325001,
3445781,Una,BR,-15.29333,-39.075279,
3445764,Unai,BR,-16.3575,-46.906109,
3385745,Uniao,BR,-4.58583,-42.86417,
3445746,Uniao da Vitoria,BR,-26.23,-51.086391,
3385742,Uniao dos Palmares,BR,-9.16278,-36.03194,
3445713,Uruacu,BR,-14.52472,-49.140831,
3445690,Urucuca,BR,-14.59306,-39.284439,
3445679,Uruguaiana,BR,-29.754721,-57.088329,
3445630,Vacaria,BR,-28.51222,-50.933891,
3445596,Valenca,BR,-22.24556,-43.700279,
3445597,Valenca,BR,-13.37028,-39.073059,
3385592,Valenca do Piaui,BR,-6.4075,-41.74556,
3445578,Valinhos,BR,-22.97056,-46.995831,
3445575,Valparaiso,BR,-21.227779,-50.868328,
3385538,Vargem Grande,BR,-3.54306,-43.915829,
3445500,Vargem Grande do Sul,BR,-21.83222,-46.893608,
3445487,Varginha,BR,-21.55139,-45.430279,
3385504,Varjota,BR,-4.19444,-40.476669,
3385467,Varzea Alegre,BR,-5.35,-40.383331,
3445459,Varzea da Palma,BR,-17.598061,-44.730831,
3445451,Varzea Grande,BR,-15.64667,-56.1325,
3445446,Varzea Paulista,BR,-23.21139,-46.828331,
3445433,Vassouras,BR,-22.403891,-43.662498,
3445418,Vazante,BR,-17.98694,-46.90778,
3445350,Venancio Aires,BR,-29.60639,-52.19194,
3445307,Vera Cruz,BR,-12.63333,-41.033329,
3445299,Veranopolis,BR,-28.93611,-51.549438,
3445162,Vespasiano,BR,-19.69194,-43.923328,
3445156,Viamao,BR,-30.08111,-51.023331,
3385122,Viana,BR,-3.22028,-45.003609,
3445153,Viana,BR,-20.39028,-40.496109,
3385109,Vicosa,BR,-9.37139,-36.240829,
3445133,Vicosa,BR,-20.753889,-42.881939,
3385106,Vicosa do Ceara,BR,-3.56222,-41.09222,
3445126,Videira,BR,-27.008329,-51.151669,
3385088,Vigia,BR,-0.85833,-48.14167,
3445026,Vila Velha,BR,-20.32972,-40.2925,
3924679,Vilhena,BR,-12.74056,-60.145828,
3445014,Vinhedo,BR,-23.02972,-46.975281,
3444997,Viradouro,BR,-20.87306,-48.29694,
3444969,Visconde do Rio Branco,BR,-21.010281,-42.840561,
3385022,Viseu,BR,-1.19667,-46.139999,
3444924,Vitoria,BR,-20.319441,-40.33778,
3444914,Vitoria da Conquista,BR,-14.86611,-40.839439,
3384987,Vitoria de Santo Antao,BR,-8.11806,-35.291389,
3384986,Vitoria do Mearim,BR,-3.46222,-44.87056,
3444876,Volta Redonda,BR,-22.52306,-44.104172,
3444866,Votorantim,BR,-23.546671,-47.437778,
3444864,Votuporanga,BR,-20.422779,-49.972778,
3445348,Wenceslau Braz,BR,-23.87389,-49.80278,
3444848,Xanxere,BR,-26.87694,-52.404171,
3444823,Xique Xique,BR,-10.82167,-42.73111,
3572375,Freeport,BS,26.533331,-78.699997,
3571971,Lucaya,BS,26.533331,-78.666672,
3571824,Nassau,BS,25.058229,-77.343063,
1252416,Thimphu,BT,27.466089,89.641907,
933778,Francistown,BW,-21.16995,27.507879,
933773,Gaborone,BW,-24.65451,25.90859,
933719,Janeng,BW,-25.41667,25.549999,
933685,Kanye,BW,-24.966749,25.332741,
933535,Letlhakane,BW,-21.41667,25.58333,
933521,Lobatse,BW,-25.216669,25.66667,
933471,Mahalapye,BW,-23.104071,26.814211,
933366,Maun,BW,-19.98333,23.41667,
933340,Mochudi,BW,-24.41667,26.15,
933331,Mogoditshane,BW,-24.62694,25.865561,
933305,Molepolole,BW,-24.40659,25.495081,
933271,Mosopa,BW,-24.771799,25.42156,
933182,Palapye,BW,-22.546049,27.125071,
933141,Ramotswa,BW,-24.87158,25.86989,
933099,Selebi-Phikwe,BW,-21.979031,27.849831,
933088,Serowe,BW,-22.383329,26.716669,
933018,Thamaga,BW,-24.670139,25.539749,
933000,Tonota,BW,-21.48333,27.48333,
624034,Asipovichy,BY,53.293331,28.642221,
630468,Babruysk,BY,53.150002,29.233334,
630429,Baranavichy,BY,53.132702,26.013901,
629634,Brest,BY,52.099998,23.700001,
629454,Byaroza,BY,52.531399,24.9786,
629447,Bykhaw,BY,53.519348,30.246929,
629018,Dobrush,BY,52.408901,31.3237,
628634,Dzyarzhynsk,BY,53.683201,27.138,
627908,Hlybokaye,BY,55.138229,27.687929,
627907,Homyel,BY,52.434502,30.975401,
630376,Horad Barysaw,BY,54.231232,28.50485,
618800,Horad Zhodzina,BY,54.098331,28.3325,
627905,Horki,BY,54.286098,30.98424,
627904,Hrodna,BY,53.6884,23.8258,
627800,Ivatsevichy,BY,52.709,25.340099,
627751,Kalinkavichy,BY,52.132301,29.325701,
627083,Kalodzishchy,BY,53.944,27.782301,
627145,Kobryn,BY,52.213799,24.3564,
626450,Krychaw,BY,53.694481,31.70994,
626081,Lida,BY,53.883331,25.299721,
625818,Luninyets,BY,52.2472,26.804701,
625743,Lyepyel,BY,54.881432,28.69323,
625665,Mahilyow,BY,53.913891,30.33639,
625625,Maladzyechna,BY,54.320518,26.864361,
625409,Marina Horka,BY,53.508999,28.146999,
625367,Masty,BY,53.412201,24.5387,
625324,Mazyr,BY,52.0495,29.2456,
625144,Minsk,BY,53.900002,27.566668,
624785,Navahrudak,BY,53.599998,25.833332,
624784,Navapolatsk,BY,55.536282,28.642441,
624400,Novoye Medvezhino,BY,53.883331,27.450001,
624079,Orsha,BY,54.515278,30.405277,
623760,Pastavy,BY,55.11676,26.83263,
623549,Pinsk,BY,52.122898,26.0951,
623317,Polatsk,BY,55.48592,28.77556,
622997,Pruzhany,BY,52.556667,24.464443,
622739,Rahachow,BY,53.093399,30.0495,
622794,Rechytsa,BY,52.361698,30.3916,
622428,Salihorsk,BY,52.787601,27.5415,
622113,Shchuchin,BY,53.601398,24.7465,
621754,Slonim,BY,53.086666,25.321943,
621741,Slutsk,BY,53.027401,27.5597,
621713,Smarhon,BY,54.479061,26.3934,
621266,Stowbtsy,BY,53.4785,26.743401,
621074,Svyetlahorsk,BY,52.6329,29.738899,
620391,Vawkavysk,BY,53.156101,24.4513,
620181,Vilyeyka,BY,54.489601,26.90624,
620127,Vitsyebsk,BY,55.190479,30.2033,
618806,Zhlobin,BY,52.892601,30.024,
3582677,Belize City,BZ,17.499519,-88.197563,
3582672,Belmopan,BZ,17.25,-88.76667,
3581514,Orange Walk,BZ,18.08124,-88.563278,
3581194,San Ignacio,BZ,17.156111,-89.071388,
5881791,Abbotsford,CA,49.05798,-122.252571,
5882799,Airdrie,CA,51.30011,-114.035278,
5882873,Ajax,CA,43.850121,-79.032883,
5884083,Alma,CA,48.550091,-71.649101,
5884588,Amos,CA,48.566879,-78.116241,
5889745,Baie-Comeau,CA,49.216789,-68.148941,
5894171,Barrie,CA,44.400108,-79.666344,
5895650,Beaconsfield,CA,45.433411,-73.86586,
5897885,Belleville,CA,44.178761,-77.370529,
5898138,Beloeil,CA,45.56678,-73.19915,
5903510,Blainville,CA,45.666779,-73.882492,
5905132,Boisbriand,CA,45.616779,-73.832489,
5906267,Boucherville,CA,45.591042,-73.43605,
5907180,Bradford West Gwillimbury,CA,44.11681,-79.616333,
5907364,Brampton,CA,43.683411,-79.766327,
5907896,Brandon,CA,49.84692,-99.953056,
5907983,Brant,CA,43.1334,-80.34967,
5907990,Brantford,CA,43.1334,-80.266357,
5909294,Brockville,CA,44.583408,-75.68264,
5909629,Brossard,CA,45.450081,-73.465828,
5911592,Burlington,CA,43.386211,-79.837128,
5911606,Burnaby,CA,49.266361,-122.952629,
5913490,Calgary,CA,51.05011,-114.085289,
5913695,Cambridge,CA,43.3601,-80.312691,
5914132,Campbell River,CA,50.016338,-125.244591,
5914653,Camrose,CA,53.016842,-112.835251,
5914826,Candiac,CA,45.383381,-73.515869,
5919566,Chambly,CA,45.450081,-73.282463,
5920288,Charlottetown,CA,46.235249,-63.126709,
5920433,Chateauguay,CA,45.383381,-73.749191,
5920450,Chatham-Kent,CA,42.400089,-82.183098,
5921357,Chilliwack,CA,49.174679,-121.944267,
5923101,Clarence-Rockland,CA,45.550098,-75.291008,
5924579,Cobourg,CA,43.95977,-78.165154,
5924618,Cochrane,CA,51.183411,-114.468712,
5925975,Collingwood,CA,44.483398,-80.216377,
5926511,Conception Bay South,CA,47.499889,-52.998058,
5927689,Coquitlam,CA,49.28297,-122.752617,
5927969,Corner Brook,CA,48.966709,-57.948399,
5928065,Cornwall,CA,45.018089,-74.728149,
5928488,Cote-Saint-Luc,CA,45.465359,-73.665848,
5930890,Courtenay,CA,49.686569,-124.993599,
5931800,Cranbrook,CA,49.499908,-115.768791,
5935277,Dartmouth,CA,44.671341,-63.57719,
5937615,Delta,CA,49.14399,-122.906799,
5938513,Deux-Montagnes,CA,45.53455,-73.90168,
5939219,Dieppe,CA,46.078442,-64.687347,
5940956,Dollard-Des Ormeaux,CA,45.494518,-73.824188,
5941925,Dorval,CA,45.4473,-73.753349,
5942845,Drummondville,CA,45.883362,-72.482407,
5943865,Duncan,CA,48.782928,-123.70266,
5946768,Edmonton,CA,53.55014,-113.468712,
5950267,Etobicoke,CA,43.654209,-79.567108,
5955815,Fort Erie,CA,42.90012,-78.932861,
5955895,Fort McMurray,CA,56.726761,-111.381027,
5955960,Fort St. John,CA,56.249882,-120.852921,
5957776,Fredericton,CA,45.945412,-66.665581,
5959974,Gatineau,CA,45.47723,-75.701637,
5961564,Glace Bay,CA,46.196949,-59.956982,
5964215,Granby,CA,45.400082,-72.73243,
5964347,Grande Prairie,CA,55.166672,-118.802711,
5965812,Greater Napanee,CA,44.250118,-76.94944,
5964700,Greater Sudbury,CA,46.490002,-80.990013,
5967629,Guelph,CA,43.550098,-80.249672,
5969093,Haldimand County,CA,42.98341,-79.866333,
5969785,Hamilton,CA,43.23341,-79.949638,
5978765,Huntsville,CA,45.333408,-79.216316,
5987650,Joliette,CA,46.016769,-73.44915,
5989045,Kamloops,CA,50.666481,-120.319199,
5989818,Kawartha Lakes,CA,44.58342,-78.832878,
5990579,Kelowna,CA,49.883072,-119.48568,
5991056,Kenora,CA,49.816711,-94.433731,
5991370,Keswick,CA,44.250111,-79.466316,
5992500,Kingston,CA,44.229759,-76.48098,
5992830,Kirkland,CA,45.450081,-73.86586,
5992996,Kitchener,CA,43.425369,-80.5112,
6049863,La Prairie,CA,45.416779,-73.499168,
6049388,Langford,CA,48.449631,-123.502609,
6049429,Langley,CA,49.09967,-122.652603,
6049430,Langley,CA,49.08297,-122.585892,
6050263,LAssomption,CA,45.823181,-73.429398,
6050610,Laval,CA,45.56995,-73.692001,
6051123,Leamington,CA,42.054901,-82.606201,
6051562,Leduc,CA,53.266819,-113.55201,
6053154,Lethbridge,CA,49.699989,-112.818558,
6058024,Lloydminster,CA,53.283459,-110.001572,
6058560,London,CA,42.983391,-81.23304,
6059891,Longueuil,CA,45.531212,-73.518059,
6064180,Magog,CA,45.266781,-72.149094,
6065686,Maple Ridge,CA,49.219391,-122.601929,
6066513,Markham,CA,43.866821,-79.266296,
6067494,Mascouche,CA,45.749649,-73.599564,
6071618,Medicine Hat,CA,50.05006,-110.668343,
6073363,Midland,CA,44.750099,-79.882957,
6075061,Mirabel,CA,45.650082,-74.082512,
6075081,Miramichi,CA,47.004311,-65.465439,
6075293,Mission,CA,49.13377,-122.3144,
6075357,Mississauga,CA,43.578899,-79.658302,
6076211,Moncton,CA,46.11594,-64.801857,
6077315,Mont-Royal,CA,45.51675,-73.649178,
6077243,Montreal,CA,45.508839,-73.587807,
6078112,Moose Jaw,CA,50.400051,-105.534447,
6082231,Mount Pearl,CA,47.51659,-52.781349,
6085772,Nanaimo,CA,49.16634,-123.936012,
6087579,New Glasgow,CA,45.583439,-62.648628,
6087844,New Westminster,CA,49.206779,-122.910919,
6087701,Newmarket,CA,44.05011,-79.466309,
6087892,Niagara Falls,CA,43.100121,-79.066269,
6089125,Norfolk County,CA,42.833401,-80.382973,
6089404,North Battleford,CA,52.78344,-108.284653,
6089426,North Bay,CA,46.316799,-79.466331,
6089661,North Cowichan,CA,48.841331,-123.685959,
